{
  "type": "FeatureCollection",
  "features": [
    {
      "type": "Feature",
      "geometry": {
        "type": "Point",
        "coordinates": [
          -87.654278,
          41.764971
        ]
      },
      "properties": {
        "group_id": "cooperation-racine",
        "name": "Cooperation Racine",
        "location_name": "",
        "address": "1201 W 71st St",
        "verification_status": "VERIFIED",
        "category": "Worker Co-ops & Economic Justice"
      }
    },
    {
      "type": "Feature",
      "geometry": {
        "type": "Point",
        "coordinates": [
          -87.6411518,
          41.8378541
        ]
      },
      "properties": {
        "group_id": "mouse-arts-letters",
        "name": "mouse-arts-letters",
        "location_name": "",
        "address": "555 W 31st St",
        "verification_status": "UNCERTAIN",
        "category": ""
      }
    },
    {
      "type": "Feature",
      "geometry": {
        "type": "Point",
        "coordinates": [
          -87.6565482,
          41.8309771
        ]
      },
      "properties": {
        "group_id": "bridgeport-alliance",
        "name": "Bridgeport Alliance",
        "location_name": "",
        "address": "1200 W 35th St",
        "verification_status": "VERIFIED",
        "category": "Community Advocacy"
      }
    },
    {
      "type": "Feature",
      "geometry": {
        "type": "Point",
        "coordinates": [
          -87.6238726,
          41.7378107
        ]
      },
      "properties": {
        "group_id": "chatham-avalon-ministries",
        "name": "Chatham-Avalon Ministries",
        "location_name": "",
        "address": "8601 S State St",
        "verification_status": "VERIFIED",
        "category": "Food Security"
      }
    },
    {
      "type": "Feature",
      "geometry": {
        "type": "Point",
        "coordinates": [
          -87.6211704,
          41.6964894
        ]
      },
      "properties": {
        "group_id": "roseland-christian-ministries",
        "name": "Roseland Christian Ministries",
        "location_name": "",
        "address": "10858 S Michigan Ave",
        "verification_status": "VERIFIED",
        "category": "Food Security"
      }
    },
    {
      "type": "Feature",
      "geometry": {
        "type": "Point",
        "coordinates": [
          -87.6418495,
          41.68791
        ]
      },
      "properties": {
        "group_id": "sheldon-heights-pantry",
        "name": "sheldon-heights-pantry",
        "location_name": "",
        "address": "11325 S Halsted St",
        "verification_status": "UNCERTAIN",
        "category": ""
      }
    },
    {
      "type": "Feature",
      "geometry": {
        "type": "Point",
        "coordinates": [
          -87.6519522,
          41.7507436
        ]
      },
      "properties": {
        "group_id": "st-sabina-pantry",
        "name": "st-sabina-pantry",
        "location_name": "",
        "address": "1120 W 79th St",
        "verification_status": "UNCERTAIN",
        "category": ""
      }
    },
    {
      "type": "Feature",
      "geometry": {
        "type": "Point",
        "coordinates": [
          -87.6558462,
          41.9734307
        ]
      },
      "properties": {
        "group_id": "chinese-mutual-aid",
        "name": "chinese-mutual-aid",
        "location_name": "",
        "address": "1016 W Argyle St",
        "verification_status": "UNCERTAIN",
        "category": ""
      }
    },
    {
      "type": "Feature",
      "geometry": {
        "type": "Point",
        "coordinates": [
          -87.6291299,
          41.8829338
        ]
      },
      "properties": {
        "group_id": "cvls",
        "name": "cvls",
        "location_name": "",
        "address": "33 N Dearborn St",
        "verification_status": "UNCERTAIN",
        "category": ""
      }
    },
    {
      "type": "Feature",
      "geometry": {
        "type": "Point",
        "coordinates": [
          -87.716317,
          41.887647
        ]
      },
      "properties": {
        "group_id": "garfield-park-cc",
        "name": "garfield-park-cc",
        "location_name": "",
        "address": "300 N Central Park Ave",
        "verification_status": "UNCERTAIN",
        "category": ""
      }
    },
    {
      "type": "Feature",
      "geometry": {
        "type": "Point",
        "coordinates": [
          -87.6595159,
          41.8277727
        ]
      },
      "properties": {
        "group_id": "love-fridge-chicago",
        "name": "Love Fridge Chicago",
        "location_name": "The Fridge on Marz",
        "address": "3630 S Iron St",
        "verification_status": "VERIFIED",
        "category": "Mutual Aid / Community Fridges"
      }
    },
    {
      "type": "Feature",
      "geometry": {
        "type": "Point",
        "coordinates": [
          -87.5313533,
          41.6916639
        ]
      },
      "properties": {
        "group_id": "love-fridge-chicago",
        "name": "Love Fridge Chicago",
        "location_name": "The Kindness Korner",
        "address": "11201 S Ave G",
        "verification_status": "VERIFIED",
        "category": "Mutual Aid / Community Fridges"
      }
    },
    {
      "type": "Feature",
      "geometry": {
        "type": "Point",
        "coordinates": [
          -87.6946065,
          41.8536568
        ]
      },
      "properties": {
        "group_id": "love-fridge-chicago",
        "name": "Love Fridge Chicago",
        "location_name": "The Love Shack",
        "address": "2751 W 21st St",
        "verification_status": "VERIFIED",
        "category": "Mutual Aid / Community Fridges"
      }
    },
    {
      "type": "Feature",
      "geometry": {
        "type": "Point",
        "coordinates": [
          -87.7074257,
          41.9174776
        ]
      },
      "properties": {
        "group_id": "love-fridge-chicago",
        "name": "Love Fridge Chicago",
        "location_name": "BInk Food Bank",
        "address": "3206 W Armitage Ave",
        "verification_status": "VERIFIED",
        "category": "Mutual Aid / Community Fridges"
      }
    },
    {
      "type": "Feature",
      "geometry": {
        "type": "Point",
        "coordinates": [
          -87.6620178,
          41.8562604
        ]
      },
      "properties": {
        "group_id": "love-fridge-chicago",
        "name": "Love Fridge Chicago",
        "location_name": "Comida Para el Pueblo",
        "address": "1855 S Blue Island Ave",
        "verification_status": "VERIFIED",
        "category": "Mutual Aid / Community Fridges"
      }
    },
    {
      "type": "Feature",
      "geometry": {
        "type": "Point",
        "coordinates": [
          -87.6497246,
          41.7785766
        ]
      },
      "properties": {
        "group_id": "love-fridge-chicago",
        "name": "Love Fridge Chicago",
        "location_name": "Getting Grown Collective",
        "address": "6344 S Morgan St",
        "verification_status": "VERIFIED",
        "category": "Mutual Aid / Community Fridges"
      }
    },
    {
      "type": "Feature",
      "geometry": {
        "type": "Point",
        "coordinates": [
          -87.7222975,
          41.7730604
        ]
      },
      "properties": {
        "group_id": "love-fridge-chicago",
        "name": "Love Fridge Chicago",
        "location_name": "Good Neighbor Love Fridge",
        "address": "6601 S Pulaski Rd",
        "verification_status": "VERIFIED",
        "category": "Mutual Aid / Community Fridges"
      }
    },
    {
      "type": "Feature",
      "geometry": {
        "type": "Point",
        "coordinates": [
          -87.6151687,
          41.7603438
        ]
      },
      "properties": {
        "group_id": "love-fridge-chicago",
        "name": "Love Fridge Chicago",
        "location_name": "Sacred Keepers Love Fridge",
        "address": "4445 S King Dr",
        "verification_status": "VERIFIED",
        "category": "Mutual Aid / Community Fridges"
      }
    },
    {
      "type": "Feature",
      "geometry": {
        "type": "Point",
        "coordinates": [
          -87.56404,
          41.7606293
        ]
      },
      "properties": {
        "group_id": "love-fridge-chicago",
        "name": "Love Fridge Chicago",
        "location_name": "South Shore Love Fridge",
        "address": "2465 E 74th St",
        "verification_status": "VERIFIED",
        "category": "Mutual Aid / Community Fridges"
      }
    },
    {
      "type": "Feature",
      "geometry": {
        "type": "Point",
        "coordinates": [
          -87.6719365,
          41.8000647
        ]
      },
      "properties": {
        "group_id": "love-fridge-chicago",
        "name": "Love Fridge Chicago",
        "location_name": "Star Farm Love Fridge",
        "address": "5155 S Wolcott Ave",
        "verification_status": "VERIFIED",
        "category": "Mutual Aid / Community Fridges"
      }
    },
    {
      "type": "Feature",
      "geometry": {
        "type": "Point",
        "coordinates": [
          -87.7161716,
          41.8629262
        ]
      },
      "properties": {
        "group_id": "love-fridge-chicago",
        "name": "Love Fridge Chicago",
        "location_name": "Stone Temple Fridge",
        "address": "3622 W Douglas Blvd",
        "verification_status": "VERIFIED",
        "category": "Mutual Aid / Community Fridges"
      }
    },
    {
      "type": "Feature",
      "geometry": {
        "type": "Point",
        "coordinates": [
          -87.6516818964767,
          41.8327205340722
        ]
      },
      "properties": {
        "group_id": "urban-growers-collective",
        "name": "Urban Growers Collective",
        "location_name": "Neighbourhood Centroid",
        "address": "Bridgeport/Armour",
        "verification_status": "VERIFIED",
        "category": "Food Security"
      }
    },
    {
      "type": "Feature",
      "geometry": {
        "type": "Point",
        "coordinates": [
          -87.59097904100156,
          41.77228236436982
        ]
      },
      "properties": {
        "group_id": "southside-nature-play",
        "name": "Southside Nature Play",
        "location_name": "Neighbourhood Centroid",
        "address": "Woodlawn",
        "verification_status": "LIKELY_ACTIVE",
        "category": "Environmental & Green Space"
      }
    },
    {
      "type": "Feature",
      "geometry": {
        "type": "Point",
        "coordinates": [
          -87.61867731731803,
          41.8202577832915
        ]
      },
      "properties": {
        "group_id": "lake-meadows-park-advisory-council",
        "name": "Lake Meadows Park Advisory Council",
        "location_name": "Neighbourhood Centroid",
        "address": "Bronzeville",
        "verification_status": "UNCERTAIN",
        "category": "Environmental & Green Space"
      }
    },
    {
      "type": "Feature",
      "geometry": {
        "type": "Point",
        "coordinates": [
          -87.61535505000445,
          41.82206066452255
        ]
      },
      "properties": {
        "group_id": "mouse-arts-letters-social-club",
        "name": "Mouse Arts & Letters Social Club",
        "location_name": "Neighbourhood Centroid",
        "address": "Bronzeville",
        "verification_status": "UNCERTAIN",
        "category": "Arts & Culture"
      }
    },
    {
      "type": "Feature",
      "geometry": {
        "type": "Point",
        "coordinates": [
          -87.70770916207015,
          41.94223532103766
        ]
      },
      "properties": {
        "group_id": "avondale-mutual-aid",
        "name": "Avondale Mutual Aid",
        "location_name": "Neighbourhood Centroid",
        "address": "Avondale",
        "verification_status": "VERIFIED",
        "category": "Mutual Aid - General"
      }
    },
    {
      "type": "Feature",
      "geometry": {
        "type": "Point",
        "coordinates": [
          -87.66137355511135,
          41.990570143967645
        ]
      },
      "properties": {
        "group_id": "edgewater-mutual-aid-eman",
        "name": "Edgewater Mutual Aid (EMAN)",
        "location_name": "Neighbourhood Centroid",
        "address": "Edgewater",
        "verification_status": "VERIFIED",
        "category": "Mutual Aid - General"
      }
    },
    {
      "type": "Feature",
      "geometry": {
        "type": "Point",
        "coordinates": [
          -87.68775620524421,
          42.04291594729761
        ]
      },
      "properties": {
        "group_id": "evanston-community-fridges",
        "name": "Evanston Community Fridges",
        "location_name": "Neighbourhood Centroid",
        "address": "Evanston",
        "verification_status": "VERIFIED",
        "category": "Food Security"
      }
    },
    {
      "type": "Feature",
      "geometry": {
        "type": "Point",
        "coordinates": [
          -87.7068648734839,
          41.92338817605582
        ]
      },
      "properties": {
        "group_id": "logan-square-mutual-aid",
        "name": "Logan Square Mutual Aid",
        "location_name": "Neighbourhood Centroid",
        "address": "Logan Square",
        "verification_status": "VERIFIED",
        "category": "Mutual Aid - General"
      }
    },
    {
      "type": "Feature",
      "geometry": {
        "type": "Point",
        "coordinates": [
          -87.66299633162251,
          41.85589895435821
        ]
      },
      "properties": {
        "group_id": "pilsen-solidarity-network",
        "name": "Pilsen Solidarity Network",
        "location_name": "Neighbourhood Centroid",
        "address": "Pilsen",
        "verification_status": "VERIFIED",
        "category": "Mutual Aid - General"
      }
    },
    {
      "type": "Feature",
      "geometry": {
        "type": "Point",
        "coordinates": [
          -87.768240571838,
          41.899363434245345
        ]
      },
      "properties": {
        "group_id": "westside-mutual-aid",
        "name": "Westside Mutual Aid",
        "location_name": "Neighbourhood Centroid",
        "address": "Austin",
        "verification_status": "VERIFIED",
        "category": "Mutual Aid - General"
      }
    },
    {
      "type": "Feature",
      "geometry": {
        "type": "Point",
        "coordinates": [
          -87.72709269713727,
          41.969101098316116
        ]
      },
      "properties": {
        "group_id": "albany-park-mutual-aid",
        "name": "Albany Park Mutual Aid",
        "location_name": "Neighbourhood Centroid",
        "address": "Albany Park",
        "verification_status": "VERIFIED",
        "category": "Mutual Aid - General"
      }
    },
    {
      "type": "Feature",
      "geometry": {
        "type": "Point",
        "coordinates": [
          -87.72261717916335,
          41.901632583120616
        ]
      },
      "properties": {
        "group_id": "hp-solidarity-network",
        "name": "HP Solidarity Network",
        "location_name": "Neighbourhood Centroid",
        "address": "Humboldt Park",
        "verification_status": "VERIFIED",
        "category": "Mutual Aid - General"
      }
    },
    {
      "type": "Feature",
      "geometry": {
        "type": "Point",
        "coordinates": [
          -87.72704316934146,
          41.95539056688357
        ]
      },
      "properties": {
        "group_id": "irving-park-mutual-aid",
        "name": "Irving Park Mutual Aid",
        "location_name": "Neighbourhood Centroid",
        "address": "Irving Park",
        "verification_status": "VERIFIED",
        "category": "Mutual Aid - General"
      }
    },
    {
      "type": "Feature",
      "geometry": {
        "type": "Point",
        "coordinates": [
          -87.75574087120465,
          41.96660939318777
        ]
      },
      "properties": {
        "group_id": "mayfair-mutual-aid",
        "name": "Mayfair Mutual Aid",
        "location_name": "Neighbourhood Centroid",
        "address": "Mayfair",
        "verification_status": "VERIFIED",
        "category": "Mutual Aid - General"
      }
    },
    {
      "type": "Feature",
      "geometry": {
        "type": "Point",
        "coordinates": [
          -87.66156408050524,
          41.99913759170811
        ]
      },
      "properties": {
        "group_id": "po-box-collective",
        "name": "PO Box Collective",
        "location_name": "Neighbourhood Centroid",
        "address": "Rogers Park",
        "verification_status": "VERIFIED",
        "category": "Social Justice"
      }
    },
    {
      "type": "Feature",
      "geometry": {
        "type": "Point",
        "coordinates": [
          -87.61974257777193,
          41.7582171626765
        ]
      },
      "properties": {
        "group_id": "southside-together",
        "name": "Southside Together",
        "location_name": "Neighbourhood Centroid",
        "address": "South Side",
        "verification_status": "VERIFIED",
        "category": "Social Justice"
      }
    },
    {
      "type": "Feature",
      "geometry": {
        "type": "Point",
        "coordinates": [
          -87.73791677402436,
          41.8822099486669
        ]
      },
      "properties": {
        "group_id": "southwest-collective",
        "name": "Southwest Collective",
        "location_name": "Neighbourhood Centroid",
        "address": "Southwest Side",
        "verification_status": "VERIFIED",
        "category": "Community Advocacy"
      }
    },
    {
      "type": "Feature",
      "geometry": {
        "type": "Point",
        "coordinates": [
          -87.61762950699402,
          41.759628733320824
        ]
      },
      "properties": {
        "group_id": "brave-space-alliance",
        "name": "Brave Space Alliance",
        "location_name": "Neighbourhood Centroid",
        "address": "South Side",
        "verification_status": "VERIFIED",
        "category": "Healthcare & Wellness"
      }
    },
    {
      "type": "Feature",
      "geometry": {
        "type": "Point",
        "coordinates": [
          -87.62190021013512,
          41.75980535974843
        ]
      },
      "properties": {
        "group_id": "chicago-united-solidarity-project-cusp",
        "name": "Chicago United Solidarity Project (CUSP)",
        "location_name": "Neighbourhood Centroid",
        "address": "South Side",
        "verification_status": "VERIFIED",
        "category": "Mutual Aid - General"
      }
    },
    {
      "type": "Feature",
      "geometry": {
        "type": "Point",
        "coordinates": [
          -87.6585632425728,
          41.97331429264268
        ]
      },
      "properties": {
        "group_id": "chinese-mutual-aid-association-cmaa",
        "name": "Chinese Mutual Aid Association (CMAA)",
        "location_name": "Neighbourhood Centroid",
        "address": "Uptown/Argyle",
        "verification_status": "VERIFIED",
        "category": "Migrant & Immigrant Support"
      }
    },
    {
      "type": "Feature",
      "geometry": {
        "type": "Point",
        "coordinates": [
          -87.61758477920759,
          41.76194305516036
        ]
      },
      "properties": {
        "group_id": "market-box-chicago",
        "name": "Market Box Chicago",
        "location_name": "Neighbourhood Centroid",
        "address": "South Side",
        "verification_status": "VERIFIED",
        "category": "Food Security"
      }
    },
    {
      "type": "Feature",
      "geometry": {
        "type": "Point",
        "coordinates": [
          -87.64689087446848,
          41.945317010757414
        ]
      },
      "properties": {
        "group_id": "lakeview-lincoln-park-mutual-aid",
        "name": "Lakeview/Lincoln Park Mutual Aid",
        "location_name": "Neighbourhood Centroid",
        "address": "Lakeview",
        "verification_status": "VERIFIED",
        "category": "Mutual Aid - General"
      }
    },
    {
      "type": "Feature",
      "geometry": {
        "type": "Point",
        "coordinates": [
          -87.73775628692331,
          41.88187865367014
        ]
      },
      "properties": {
        "group_id": "northwest-side-solidarity-network",
        "name": "Northwest Side Solidarity Network",
        "location_name": "Neighbourhood Centroid",
        "address": "Northwest Side",
        "verification_status": "VERIFIED",
        "category": "Mutual Aid - General"
      }
    },
    {
      "type": "Feature",
      "geometry": {
        "type": "Point",
        "coordinates": [
          -87.66414943804614,
          42.00022599015131
        ]
      },
      "properties": {
        "group_id": "one-northside",
        "name": "ONE Northside",
        "location_name": "Neighbourhood Centroid",
        "address": "Rogers Park",
        "verification_status": "VERIFIED",
        "category": "Community Advocacy"
      }
    },
    {
      "type": "Feature",
      "geometry": {
        "type": "Point",
        "coordinates": [
          -87.72116596062261,
          41.882411146501056
        ]
      },
      "properties": {
        "group_id": "garfield-park-community-council",
        "name": "Garfield Park Community Council",
        "location_name": "Neighbourhood Centroid",
        "address": "Garfield Park",
        "verification_status": "VERIFIED",
        "category": "Food Security / Community Development"
      }
    },
    {
      "type": "Feature",
      "geometry": {
        "type": "Point",
        "coordinates": [
          -87.73927564690142,
          41.88089628395259
        ]
      },
      "properties": {
        "group_id": "john-walt-foundation",
        "name": "John Walt Foundation",
        "location_name": "Neighbourhood Centroid",
        "address": "West Side",
        "verification_status": "VERIFIED",
        "category": "Food Security"
      }
    },
    {
      "type": "Feature",
      "geometry": {
        "type": "Point",
        "coordinates": [
          -87.6479231284264,
          41.942983671468824
        ]
      },
      "properties": {
        "group_id": "center-on-halsted",
        "name": "Center on Halsted",
        "location_name": "Neighbourhood Centroid",
        "address": "Lakeview",
        "verification_status": "VERIFIED",
        "category": "LGBTQ+ Support"
      }
    },
    {
      "type": "Feature",
      "geometry": {
        "type": "Point",
        "coordinates": [
          -87.74249328214681,
          41.880544633044295
        ]
      },
      "properties": {
        "group_id": "chicago-environmental-justice-network-cejn",
        "name": "Chicago Environmental Justice Network (CEJN)",
        "location_name": "Neighbourhood Centroid",
        "address": "South and West Sides",
        "verification_status": "VERIFIED",
        "category": "Environmental Justice"
      }
    },
    {
      "type": "Feature",
      "geometry": {
        "type": "Point",
        "coordinates": [
          -87.74096557422013,
          41.88295218416544
        ]
      },
      "properties": {
        "group_id": "sarah-s-inn",
        "name": "Sarah's Inn",
        "location_name": "Neighbourhood Centroid",
        "address": "West Side",
        "verification_status": "VERIFIED",
        "category": "Domestic Violence Support"
      }
    },
    {
      "type": "Feature",
      "geometry": {
        "type": "Point",
        "coordinates": [
          -87.76573695373376,
          41.90012881343884
        ]
      },
      "properties": {
        "group_id": "westside-community-development-collaboration",
        "name": "Westside Community Development Collaboration",
        "location_name": "Neighbourhood Centroid",
        "address": "Austin",
        "verification_status": "VERIFIED",
        "category": "Community Development"
      }
    },
    {
      "type": "Feature",
      "geometry": {
        "type": "Point",
        "coordinates": [
          -87.59654490328477,
          41.79488326784339
        ]
      },
      "properties": {
        "group_id": "uchrp-u-of-chicago-harm-reduction-project",
        "name": "UCHRP (U of Chicago Harm Reduction Project)",
        "location_name": "Neighbourhood Centroid",
        "address": "Hyde Park / South Side",
        "verification_status": "VERIFIED",
        "category": "Harm Reduction"
      }
    },
    {
      "type": "Feature",
      "geometry": {
        "type": "Point",
        "coordinates": [
          -87.6591535999871,
          41.9742108478029
        ]
      },
      "properties": {
        "group_id": "american-indian-center-chicago",
        "name": "American Indian Center Chicago",
        "location_name": "Neighbourhood Centroid",
        "address": "Uptown / Citywide",
        "verification_status": "VERIFIED",
        "category": "Indigenous Solidarity"
      }
    },
    {
      "type": "Feature",
      "geometry": {
        "type": "Point",
        "coordinates": [
          -87.59755631998866,
          41.794034628348356
        ]
      },
      "properties": {
        "group_id": "hyde-park-art-center",
        "name": "Hyde Park Art Center",
        "location_name": "Neighbourhood Centroid",
        "address": "Hyde Park",
        "verification_status": "VERIFIED",
        "category": "Arts & Culture"
      }
    },
    {
      "type": "Feature",
      "geometry": {
        "type": "Point",
        "coordinates": [
          -87.6206593081878,
          41.692913036659384
        ]
      },
      "properties": {
        "group_id": "roseland-ceasefire",
        "name": "Roseland Ceasefire",
        "location_name": "Neighbourhood Centroid",
        "address": "Roseland",
        "verification_status": "VERIFIED",
        "category": "Community Advocacy"
      }
    },
    {
      "type": "Feature",
      "geometry": {
        "type": "Point",
        "coordinates": [
          -87.62122146517567,
          41.690505126479685
        ]
      },
      "properties": {
        "group_id": "sheldon-heights-coc-food-pantry",
        "name": "Sheldon Heights CoC Food Pantry",
        "location_name": "Neighbourhood Centroid",
        "address": "Roseland",
        "verification_status": "VERIFIED",
        "category": "Food Security"
      }
    },
    {
      "type": "Feature",
      "geometry": {
        "type": "Point",
        "coordinates": [
          -87.66119846245701,
          41.752215558160685
        ]
      },
      "properties": {
        "group_id": "st-sabina-church-food-pantry",
        "name": "St. Sabina Church Food Pantry",
        "location_name": "Neighbourhood Centroid",
        "address": "Auburn Gresham",
        "verification_status": "VERIFIED",
        "category": "Food Security"
      }
    },
    {
      "type": "Feature",
      "geometry": {
        "type": "Point",
        "coordinates": [
          -87.68791131928947,
          42.044701609840764
        ]
      },
      "properties": {
        "group_id": "evanston-community-cares",
        "name": "Evanston Community Cares",
        "location_name": "Neighbourhood Centroid",
        "address": "Evanston",
        "verification_status": "VERIFIED",
        "category": "Mutual Aid - General"
      }
    },
    {
      "type": "Feature",
      "geometry": {
        "type": "Point",
        "coordinates": [
          -87.68920071750763,
          42.04514699095747
        ]
      },
      "properties": {
        "group_id": "evanston-skokie-mutual-aid-network",
        "name": "Evanston/Skokie Mutual Aid Network",
        "location_name": "Neighbourhood Centroid",
        "address": "Evanston",
        "verification_status": "VERIFIED",
        "category": "Mutual Aid - General"
      }
    },
    {
      "type": "Feature",
      "geometry": {
        "type": "Point",
        "coordinates": [
          -87.62256577185488,
          41.69282414527505
        ]
      },
      "properties": {
        "group_id": "greater-roseland-west-pullman-food-network",
        "name": "Greater Roseland West Pullman Food Network",
        "location_name": "Neighbourhood Centroid",
        "address": "Roseland",
        "verification_status": "VERIFIED",
        "category": "Food Security"
      }
    },
    {
      "type": "Feature",
      "geometry": {
        "type": "Point",
        "coordinates": [
          -87.66151861450552,
          41.749917263798245
        ]
      },
      "properties": {
        "group_id": "target-area-development-corporation",
        "name": "Target Area Development Corporation",
        "location_name": "Neighbourhood Centroid",
        "address": "Auburn Gresham",
        "verification_status": "VERIFIED",
        "category": "Food Security"
      }
    },
    {
      "type": "Feature",
      "geometry": {
        "type": "Point",
        "coordinates": [
          -87.66125127403514,
          41.749251008075916
        ]
      },
      "properties": {
        "group_id": "greater-auburn-gresham-development-corporation-gagdc",
        "name": "Greater Auburn Gresham Development Corporation (GAGDC)",
        "location_name": "Neighbourhood Centroid",
        "address": "Auburn Gresham",
        "verification_status": "VERIFIED",
        "category": "Community Development"
      }
    },
    {
      "type": "Feature",
      "geometry": {
        "type": "Point",
        "coordinates": [
          -87.62155772824107,
          41.69225306762705
        ]
      },
      "properties": {
        "group_id": "youth-peace-center-of-roseland",
        "name": "Youth Peace Center of Roseland",
        "location_name": "Neighbourhood Centroid",
        "address": "Roseland",
        "verification_status": "VERIFIED",
        "category": "Youth & Education"
      }
    },
    {
      "type": "Feature",
      "geometry": {
        "type": "Point",
        "coordinates": [
          -87.62429393885174,
          41.69503906634035
        ]
      },
      "properties": {
        "group_id": "peaceplayers-chicago",
        "name": "PeacePlayers Chicago",
        "location_name": "Neighbourhood Centroid",
        "address": "Roseland",
        "verification_status": "VERIFIED",
        "category": "Youth & Education"
      }
    },
    {
      "type": "Feature",
      "geometry": {
        "type": "Point",
        "coordinates": [
          -87.59219771535113,
          41.77647182430639
        ]
      },
      "properties": {
        "group_id": "southside-nature-play",
        "name": "Southside Nature Play",
        "location_name": "Neighbourhood Centroid",
        "address": "Woodlawn",
        "verification_status": "LIKELY_ACTIVE",
        "category": "Environmental & Green Space"
      }
    },
    {
      "type": "Feature",
      "geometry": {
        "type": "Point",
        "coordinates": [
          -87.65921722137396,
          41.9880083245756
        ]
      },
      "properties": {
        "group_id": "edgewater-mutual-aid-group",
        "name": "Edgewater Mutual Aid Group",
        "location_name": "Neighbourhood Centroid",
        "address": "Edgewater",
        "verification_status": "LIKELY_ACTIVE",
        "category": "General Mutual Aid / Food & Essentials"
      }
    },
    {
      "type": "Feature",
      "geometry": {
        "type": "Point",
        "coordinates": [
          -87.70571162898526,
          41.92281506862997
        ]
      },
      "properties": {
        "group_id": "el-rbol",
        "name": "El \u00c1rbol",
        "location_name": "Neighbourhood Centroid",
        "address": "Logan Square",
        "verification_status": "LIKELY_ACTIVE",
        "category": "Migrant Support / Free Store"
      }
    },
    {
      "type": "Feature",
      "geometry": {
        "type": "Point",
        "coordinates": [
          -87.66217859379634,
          41.85372361538347
        ]
      },
      "properties": {
        "group_id": "femme-defensa",
        "name": "Femme Defensa",
        "location_name": "Neighbourhood Centroid",
        "address": "Pilsen / Little Village",
        "verification_status": "VERIFIED",
        "category": "Gender-Based Violence / Food & Housing"
      }
    },
    {
      "type": "Feature",
      "geometry": {
        "type": "Point",
        "coordinates": [
          -87.66337066074982,
          41.99853692140887
        ]
      },
      "properties": {
        "group_id": "food-not-bombs-chicago-rogers-park",
        "name": "Food Not Bombs Chicago \u2013 Rogers Park",
        "location_name": "Neighbourhood Centroid",
        "address": "Rogers Park",
        "verification_status": "VERIFIED",
        "category": "Food Recovery / Distribution"
      }
    },
    {
      "type": "Feature",
      "geometry": {
        "type": "Point",
        "coordinates": [
          -87.64587821622615,
          41.773666879328964
        ]
      },
      "properties": {
        "group_id": "getting-grown-collective-food-farm-familias",
        "name": "Getting Grown Collective \u2013 Food, Farm, Familias",
        "location_name": "Neighbourhood Centroid",
        "address": "Little Village / Englewood / South Chicago",
        "verification_status": "VERIFIED",
        "category": "Food Justice / Urban Agriculture"
      }
    },
    {
      "type": "Feature",
      "geometry": {
        "type": "Point",
        "coordinates": [
          -87.72105529378794,
          41.898187856704126
        ]
      },
      "properties": {
        "group_id": "humboldt-park-solidarity-network",
        "name": "Humboldt Park Solidarity Network",
        "location_name": "Neighbourhood Centroid",
        "address": "Humboldt Park",
        "verification_status": "LIKELY_ACTIVE",
        "category": "General Mutual Aid / Food & Essentials"
      }
    },
    {
      "type": "Feature",
      "geometry": {
        "type": "Point",
        "coordinates": [
          -87.64907070022547,
          41.94444132069161
        ]
      },
      "properties": {
        "group_id": "lakeview-lincoln-park-mutual-aid-network",
        "name": "Lakeview / Lincoln Park Mutual Aid Network",
        "location_name": "Neighbourhood Centroid",
        "address": "Lakeview / Lincoln Park",
        "verification_status": "UNCERTAIN",
        "category": "General Mutual Aid / Food & Essentials"
      }
    },
    {
      "type": "Feature",
      "geometry": {
        "type": "Point",
        "coordinates": [
          -87.74228055797327,
          41.884166209802025
        ]
      },
      "properties": {
        "group_id": "lil-miracles-mutual-aid-360-nation",
        "name": "Lil' Miracles Mutual Aid (360 Nation)",
        "location_name": "Neighbourhood Centroid",
        "address": "West Side",
        "verification_status": "LIKELY_ACTIVE",
        "category": "General Mutual Aid / Youth & Family"
      }
    },
    {
      "type": "Feature",
      "geometry": {
        "type": "Point",
        "coordinates": [
          -87.72313833061754,
          41.90048212430742
        ]
      },
      "properties": {
        "group_id": "lolitas-bodega",
        "name": "Lolitas Bodega",
        "location_name": "Neighbourhood Centroid",
        "address": "Humboldt Park",
        "verification_status": "VERIFIED",
        "category": "Food & Essentials / Community Care"
      }
    },
    {
      "type": "Feature",
      "geometry": {
        "type": "Point",
        "coordinates": [
          -87.591673585554,
          41.77597646855996
        ]
      },
      "properties": {
        "group_id": "market-box",
        "name": "Market Box",
        "location_name": "Neighbourhood Centroid",
        "address": "Woodlawn / South Side",
        "verification_status": "VERIFIED",
        "category": "Food Justice / Farm Share Distribution"
      }
    },
    {
      "type": "Feature",
      "geometry": {
        "type": "Point",
        "coordinates": [
          -87.664065666206,
          41.8568258684066
        ]
      },
      "properties": {
        "group_id": "pilsen-social-health-initiative",
        "name": "Pilsen Social Health Initiative",
        "location_name": "Neighbourhood Centroid",
        "address": "Pilsen",
        "verification_status": "VERIFIED",
        "category": "General Mutual Aid / Food & Health"
      }
    },
    {
      "type": "Feature",
      "geometry": {
        "type": "Point",
        "coordinates": [
          -87.7251072834148,
          41.967032668955724
        ]
      },
      "properties": {
        "group_id": "pueblo-unido-albany-park",
        "name": "Pueblo Unido Albany Park",
        "location_name": "Neighbourhood Centroid",
        "address": "Albany Park",
        "verification_status": "LIKELY_ACTIVE",
        "category": "Immigrant Support / General Mutual Aid"
      }
    },
    {
      "type": "Feature",
      "geometry": {
        "type": "Point",
        "coordinates": [
          -87.64708077080037,
          41.77430391437111
        ]
      },
      "properties": {
        "group_id": "resident-association-of-greater-englewood-r-a-g-e",
        "name": "Resident Association of Greater Englewood (R.A.G.E.)",
        "location_name": "Neighbourhood Centroid",
        "address": "Englewood",
        "verification_status": "VERIFIED",
        "category": "Community Organizing / Mutual Aid"
      }
    },
    {
      "type": "Feature",
      "geometry": {
        "type": "Point",
        "coordinates": [
          -87.66198763318508,
          41.99703701926558
        ]
      },
      "properties": {
        "group_id": "rogers-park-free-store",
        "name": "Rogers Park Free Store",
        "location_name": "Neighbourhood Centroid",
        "address": "Rogers Park",
        "verification_status": "VERIFIED",
        "category": "Free Store / Basic Needs"
      }
    },
    {
      "type": "Feature",
      "geometry": {
        "type": "Point",
        "coordinates": [
          -87.62056868815057,
          41.7594047034686
        ]
      },
      "properties": {
        "group_id": "adler-planetarium",
        "name": "Adler Planetarium",
        "location_name": "Neighbourhood Centroid",
        "address": "Near South Side (Museum Campus)",
        "verification_status": "VERIFIED",
        "category": "Museum"
      }
    },
    {
      "type": "Feature",
      "geometry": {
        "type": "Point",
        "coordinates": [
          -87.61777942420584,
          41.76133320397015
        ]
      },
      "properties": {
        "group_id": "field-museum",
        "name": "Field Museum",
        "location_name": "Neighbourhood Centroid",
        "address": "Near South Side (Museum Campus)",
        "verification_status": "VERIFIED",
        "category": "Museum"
      }
    },
    {
      "type": "Feature",
      "geometry": {
        "type": "Point",
        "coordinates": [
          -87.66173946304316,
          41.97086895377143
        ]
      },
      "properties": {
        "group_id": "museum-of-contemporary-art-mca-chicago",
        "name": "Museum of Contemporary Art (MCA) Chicago",
        "location_name": "Neighbourhood Centroid",
        "address": "Near North Side / Streeterville",
        "verification_status": "VERIFIED",
        "category": "Museum"
      }
    },
    {
      "type": "Feature",
      "geometry": {
        "type": "Point",
        "coordinates": [
          -87.61941337278472,
          41.76142161859771
        ]
      },
      "properties": {
        "group_id": "shedd-aquarium",
        "name": "Shedd Aquarium",
        "location_name": "Neighbourhood Centroid",
        "address": "Near South Side (Museum Campus)",
        "verification_status": "VERIFIED",
        "category": "Museum / Aquarium"
      }
    },
    {
      "type": "Feature",
      "geometry": {
        "type": "Point",
        "coordinates": [
          -87.64966693767624,
          41.942105144348446
        ]
      },
      "properties": {
        "group_id": "stage-773",
        "name": "Stage 773",
        "location_name": "Neighbourhood Centroid",
        "address": "Lakeview",
        "verification_status": "INACTIVE",
        "category": "Theater"
      }
    },
    {
      "type": "Feature",
      "geometry": {
        "type": "Point",
        "coordinates": [
          -87.66371888399641,
          41.998431695716114
        ]
      },
      "properties": {
        "group_id": "american-indian-association-of-illinois-aiai",
        "name": "American Indian Association of Illinois (AIAI)",
        "location_name": "Neighbourhood Centroid",
        "address": "Rogers Park",
        "verification_status": "VERIFIED",
        "category": "Education & Youth Services"
      }
    },
    {
      "type": "Feature",
      "geometry": {
        "type": "Point",
        "coordinates": [
          -87.72573003470814,
          41.97068053544556
        ]
      },
      "properties": {
        "group_id": "american-indian-center-of-chicago-aic",
        "name": "American Indian Center of Chicago (AIC)",
        "location_name": "Neighbourhood Centroid",
        "address": "Albany Park",
        "verification_status": "VERIFIED",
        "category": "Cultural Center & Community Hub"
      }
    },
    {
      "type": "Feature",
      "geometry": {
        "type": "Point",
        "coordinates": [
          -87.72584182508862,
          41.9681248283555
        ]
      },
      "properties": {
        "group_id": "american-indian-health-service-of-chicago-aihsc",
        "name": "American Indian Health Service of Chicago (AIHSC)",
        "location_name": "Neighbourhood Centroid",
        "address": "Albany Park",
        "verification_status": "VERIFIED",
        "category": "Indigenous Healthcare & Behavioral Health"
      }
    },
    {
      "type": "Feature",
      "geometry": {
        "type": "Point",
        "coordinates": [
          -87.72809300089136,
          41.97068838036302
        ]
      },
      "properties": {
        "group_id": "chi-nations-youth-council-cnyc",
        "name": "Chi-Nations Youth Council (CNYC)",
        "location_name": "Neighbourhood Centroid",
        "address": "Albany Park / Citywide",
        "verification_status": "VERIFIED",
        "category": "Youth Activism & Cultural Preservation"
      }
    },
    {
      "type": "Feature",
      "geometry": {
        "type": "Point",
        "coordinates": [
          -87.72829729646052,
          41.970107178886515
        ]
      },
      "properties": {
        "group_id": "first-nations-garden",
        "name": "First Nations Garden",
        "location_name": "Neighbourhood Centroid",
        "address": "Albany Park",
        "verification_status": "VERIFIED",
        "category": "Land Stewardship & Environmental Justice"
      }
    },
    {
      "type": "Feature",
      "geometry": {
        "type": "Point",
        "coordinates": [
          -87.68948320778271,
          42.04481092012804
        ]
      },
      "properties": {
        "group_id": "gichigamiin-indigenous-nations-museum",
        "name": "Gichigamiin Indigenous Nations Museum",
        "location_name": "Neighbourhood Centroid",
        "address": "Evanston (Chicago Metro)",
        "verification_status": "VERIFIED",
        "category": "Museum & Cultural Education"
      }
    },
    {
      "type": "Feature",
      "geometry": {
        "type": "Point",
        "coordinates": [
          -87.66096838859485,
          41.97079663329757
        ]
      },
      "properties": {
        "group_id": "indigenous-chicago",
        "name": "Indigenous Chicago",
        "location_name": "Neighbourhood Centroid",
        "address": "Near North Side (c/o Newberry Library)",
        "verification_status": "LIKELY_ACTIVE",
        "category": "Public Education & Community Mapping"
      }
    },
    {
      "type": "Feature",
      "geometry": {
        "type": "Point",
        "coordinates": [
          -87.65904193167431,
          41.9707747546163
        ]
      },
      "properties": {
        "group_id": "newberry-library-d-arcy-mcnickle-center",
        "name": "Newberry Library \u2014 D'Arcy McNickle Center",
        "location_name": "Neighbourhood Centroid",
        "address": "Near North Side (Gold Coast)",
        "verification_status": "VERIFIED",
        "category": "Research & Cultural Archives"
      }
    },
    {
      "type": "Feature",
      "geometry": {
        "type": "Point",
        "coordinates": [
          -87.65128438991583,
          41.94439404918106
        ]
      },
      "properties": {
        "group_id": "saint-kateri-center-of-chicago",
        "name": "Saint Kateri Center of Chicago",
        "location_name": "Neighbourhood Centroid",
        "address": "Lakeview / North Center",
        "verification_status": "LIKELY_ACTIVE",
        "category": "Spiritual Community & Cultural Preservation"
      }
    },
    {
      "type": "Feature",
      "geometry": {
        "type": "Point",
        "coordinates": [
          -87.74209372618976,
          41.88371126936333
        ]
      },
      "properties": {
        "group_id": "big-brothers-big-sisters-of-metropolitan-chicago",
        "name": "Big Brothers Big Sisters of Metropolitan Chicago",
        "location_name": "Neighbourhood Centroid",
        "address": "Near West Side (citywide programs)",
        "verification_status": "VERIFIED",
        "category": "Youth Mentoring"
      }
    },
    {
      "type": "Feature",
      "geometry": {
        "type": "Point",
        "coordinates": [
          -87.64939587505923,
          41.8309657011783
        ]
      },
      "properties": {
        "group_id": "chicago-arts-partnerships-in-education-cape",
        "name": "Chicago Arts Partnerships in Education (CAPE)",
        "location_name": "Neighbourhood Centroid",
        "address": "Bridgeport / Near South Side",
        "verification_status": "VERIFIED",
        "category": "Arts-Integrated Education"
      }
    },
    {
      "type": "Feature",
      "geometry": {
        "type": "Point",
        "coordinates": [
          -87.64770769045427,
          41.77405488061551
        ]
      },
      "properties": {
        "group_id": "chicago-hopes-for-kids",
        "name": "Chicago HOPES for Kids",
        "location_name": "Neighbourhood Centroid",
        "address": "Englewood / South Side",
        "verification_status": "VERIFIED",
        "category": "Youth Education & Tutoring / Homeless Youth"
      }
    },
    {
      "type": "Feature",
      "geometry": {
        "type": "Point",
        "coordinates": [
          -87.65865469919046,
          41.96977931409659
        ]
      },
      "properties": {
        "group_id": "chicago-lights-tutoring",
        "name": "Chicago Lights Tutoring",
        "location_name": "Neighbourhood Centroid",
        "address": "Gold Coast / Near North Side",
        "verification_status": "VERIFIED",
        "category": "Youth Tutoring & Mentorship"
      }
    },
    {
      "type": "Feature",
      "geometry": {
        "type": "Point",
        "coordinates": [
          -87.59383915961514,
          41.77324579699528
        ]
      },
      "properties": {
        "group_id": "project-exploration",
        "name": "Project Exploration",
        "location_name": "Neighbourhood Centroid",
        "address": "Woodlawn / South Side",
        "verification_status": "VERIFIED",
        "category": "STEM Science Education / Youth Development"
      }
    },
    {
      "type": "Feature",
      "geometry": {
        "type": "Point",
        "coordinates": [
          -87.65074290224887,
          41.83340143193618
        ]
      },
      "properties": {
        "group_id": "project-vision",
        "name": "Project: VISION",
        "location_name": "Neighbourhood Centroid",
        "address": "Chinatown / Bridgeport",
        "verification_status": "VERIFIED",
        "category": "Youth Education & Leadership / API Community"
      }
    },
    {
      "type": "Feature",
      "geometry": {
        "type": "Point",
        "coordinates": [
          -87.64881780375933,
          41.94388513507488
        ]
      },
      "properties": {
        "group_id": "sitstayread",
        "name": "SitStayRead",
        "location_name": "Neighbourhood Centroid",
        "address": "Lakeview (HQ; programs citywide)",
        "verification_status": "VERIFIED",
        "category": "Canine-Assisted Youth Literacy"
      }
    },
    {
      "type": "Feature",
      "geometry": {
        "type": "Point",
        "coordinates": [
          -87.72045248602579,
          41.88427673995849
        ]
      },
      "properties": {
        "group_id": "garfield-park-conservatory-alliance",
        "name": "Garfield Park Conservatory Alliance",
        "location_name": "Neighbourhood Centroid",
        "address": "East Garfield Park",
        "verification_status": "VERIFIED",
        "category": "Botanical Garden/Education"
      }
    },
    {
      "type": "Feature",
      "geometry": {
        "type": "Point",
        "coordinates": [
          -87.59180585228017,
          41.7736818560252
        ]
      },
      "properties": {
        "group_id": "phoenix-sustainability-initiative",
        "name": "Phoenix Sustainability Initiative",
        "location_name": "Neighbourhood Centroid",
        "address": "Hyde Park / Woodlawn",
        "verification_status": "VERIFIED",
        "category": "Community Garden & Environmental Education"
      }
    },
    {
      "type": "Feature",
      "geometry": {
        "type": "Point",
        "coordinates": [
          -87.6619851363557,
          41.988603311721434
        ]
      },
      "properties": {
        "group_id": "peterson-garden-project",
        "name": "Peterson Garden Project",
        "location_name": "Neighbourhood Centroid",
        "address": "Edgewater / Citywide",
        "verification_status": "STALE",
        "category": "Community/Victory Gardens"
      }
    },
    {
      "type": "Feature",
      "geometry": {
        "type": "Point",
        "coordinates": [
          -87.64365018780902,
          41.77526383441074
        ]
      },
      "properties": {
        "group_id": "growing-home",
        "name": "Growing Home",
        "location_name": "Neighbourhood Centroid",
        "address": "Englewood",
        "verification_status": "VERIFIED",
        "category": "Urban Agriculture/Job Training"
      }
    },
    {
      "type": "Feature",
      "geometry": {
        "type": "Point",
        "coordinates": [
          -87.66538135046842,
          41.99593370394513
        ]
      },
      "properties": {
        "group_id": "cje-seniorlife",
        "name": "CJE SeniorLife",
        "location_name": "Neighbourhood Centroid",
        "address": "West Rogers Park",
        "verification_status": "VERIFIED",
        "category": "Senior Meal Delivery"
      }
    },
    {
      "type": "Feature",
      "geometry": {
        "type": "Point",
        "coordinates": [
          -87.66166169673835,
          41.99895548270821
        ]
      },
      "properties": {
        "group_id": "care-for-real",
        "name": "Care for Real",
        "location_name": "Neighbourhood Centroid",
        "address": "Rogers Park",
        "verification_status": "VERIFIED",
        "category": "Food Pantry"
      }
    },
    {
      "type": "Feature",
      "geometry": {
        "type": "Point",
        "coordinates": [
          -87.6055619384602,
          41.74779126817512
        ]
      },
      "properties": {
        "group_id": "chatham-avalon-ministries-inc",
        "name": "Chatham-Avalon Ministries Inc.",
        "location_name": "Neighbourhood Centroid",
        "address": "Chatham",
        "verification_status": "LIKELY_ACTIVE",
        "category": "Food Pantry"
      }
    },
    {
      "type": "Feature",
      "geometry": {
        "type": "Point",
        "coordinates": [
          -87.66300376049779,
          41.99819059386449
        ]
      },
      "properties": {
        "group_id": "ezra-multi-service-center",
        "name": "EZRA Multi-Service Center",
        "location_name": "Neighbourhood Centroid",
        "address": "West Rogers Park",
        "verification_status": "VERIFIED",
        "category": "Food Pantry / Social Services"
      }
    },
    {
      "type": "Feature",
      "geometry": {
        "type": "Point",
        "coordinates": [
          -87.72639282604109,
          41.97054778015
        ]
      },
      "properties": {
        "group_id": "friendship-center-chicago",
        "name": "Friendship Center Chicago",
        "location_name": "Neighbourhood Centroid",
        "address": "Albany Park / Northwest Side",
        "verification_status": "VERIFIED",
        "category": "Food Pantry / Soup Kitchen"
      }
    },
    {
      "type": "Feature",
      "geometry": {
        "type": "Point",
        "coordinates": [
          -87.65031668130297,
          41.943880148556964
        ]
      },
      "properties": {
        "group_id": "lakeview-pantry-nourishing-hope",
        "name": "Lakeview Pantry / Nourishing Hope",
        "location_name": "Neighbourhood Centroid",
        "address": "Lakeview / Uptown",
        "verification_status": "VERIFIED",
        "category": "Food Pantry / Social Services"
      }
    },
    {
      "type": "Feature",
      "geometry": {
        "type": "Point",
        "coordinates": [
          -87.73875779265919,
          41.88039797507153
        ]
      },
      "properties": {
        "group_id": "marillac-house-food-pantry",
        "name": "Marillac House Food Pantry",
        "location_name": "Neighbourhood Centroid",
        "address": "Near West Side",
        "verification_status": "VERIFIED",
        "category": "Food Pantry"
      }
    },
    {
      "type": "Feature",
      "geometry": {
        "type": "Point",
        "coordinates": [
          -87.66231642759776,
          41.85395836624655
        ]
      },
      "properties": {
        "group_id": "pilsen-food-pantry",
        "name": "Pilsen Food Pantry",
        "location_name": "Neighbourhood Centroid",
        "address": "Pilsen",
        "verification_status": "VERIFIED",
        "category": "Food Pantry"
      }
    },
    {
      "type": "Feature",
      "geometry": {
        "type": "Point",
        "coordinates": [
          -87.66199882878841,
          41.855353496808675
        ]
      },
      "properties": {
        "group_id": "providence-soup-kitchen-daughters-of-st-mary-of-providence",
        "name": "Providence Soup Kitchen (Daughters of St. Mary of Providence)",
        "location_name": "Neighbourhood Centroid",
        "address": "Pilsen",
        "verification_status": "LIKELY_ACTIVE",
        "category": "Soup Kitchen"
      }
    },
    {
      "type": "Feature",
      "geometry": {
        "type": "Point",
        "coordinates": [
          -87.66106205193805,
          41.96845407728939
        ]
      },
      "properties": {
        "group_id": "ronald-mcdonald-house-charities-of-chicagoland-nw-indiana",
        "name": "Ronald McDonald House Charities of Chicagoland & NW Indiana",
        "location_name": "Neighbourhood Centroid",
        "address": "Streeterville / Near North Side",
        "verification_status": "VERIFIED",
        "category": "Meal Preparation"
      }
    },
    {
      "type": "Feature",
      "geometry": {
        "type": "Point",
        "coordinates": [
          -87.61844352984266,
          41.76128910347548
        ]
      },
      "properties": {
        "group_id": "st-cyprian-food-pantry",
        "name": "St. Cyprian Food Pantry",
        "location_name": "Neighbourhood Centroid",
        "address": "South Side",
        "verification_status": "VERIFIED",
        "category": "Food Pantry"
      }
    },
    {
      "type": "Feature",
      "geometry": {
        "type": "Point",
        "coordinates": [
          -87.7649161071471,
          41.89928791079832
        ]
      },
      "properties": {
        "group_id": "the-boulevard-the-road-to-health-and-home",
        "name": "The Boulevard: The Road to Health and Home",
        "location_name": "Neighbourhood Centroid",
        "address": "Austin / West Side",
        "verification_status": "VERIFIED",
        "category": "Food / Social Services"
      }
    },
    {
      "type": "Feature",
      "geometry": {
        "type": "Point",
        "coordinates": [
          -87.62217236806595,
          41.76197125664684
        ]
      },
      "properties": {
        "group_id": "affinity-community-services",
        "name": "Affinity Community Services",
        "location_name": "Neighbourhood Centroid",
        "address": "Douglas/Near South Side",
        "verification_status": "VERIFIED",
        "category": "LGBTQ+ Social Justice"
      }
    },
    {
      "type": "Feature",
      "geometry": {
        "type": "Point",
        "coordinates": [
          -87.64676161250694,
          41.94359001979844
        ]
      },
      "properties": {
        "group_id": "broadway-youth-center-howard-brown-health",
        "name": "Broadway Youth Center (Howard Brown Health)",
        "location_name": "Neighbourhood Centroid",
        "address": "Lakeview",
        "verification_status": "VERIFIED",
        "category": "LGBTQ+ Youth Services"
      }
    },
    {
      "type": "Feature",
      "geometry": {
        "type": "Point",
        "coordinates": [
          -87.61996927083301,
          41.76207795307922
        ]
      },
      "properties": {
        "group_id": "chicago-house",
        "name": "Chicago House",
        "location_name": "Neighbourhood Centroid",
        "address": "Near South Side",
        "verification_status": "VERIFIED",
        "category": "HIV/AIDS Services / LGBTQ+ Housing"
      }
    },
    {
      "type": "Feature",
      "geometry": {
        "type": "Point",
        "coordinates": [
          -87.74037702368906,
          41.88386486490462
        ]
      },
      "properties": {
        "group_id": "covenant-house-illinois",
        "name": "Covenant House Illinois",
        "location_name": "Neighbourhood Centroid",
        "address": "West Side",
        "verification_status": "VERIFIED",
        "category": "LGBTQ+ Youth Services / Homeless Services"
      }
    },
    {
      "type": "Feature",
      "geometry": {
        "type": "Point",
        "coordinates": [
          -87.66237493679547,
          42.000771836614405
        ]
      },
      "properties": {
        "group_id": "circles-ciphers",
        "name": "Circles & Ciphers",
        "location_name": "Neighbourhood Centroid",
        "address": "Rogers Park",
        "verification_status": "VERIFIED",
        "category": "Restorative Justice / Youth Arts"
      }
    },
    {
      "type": "Feature",
      "geometry": {
        "type": "Point",
        "coordinates": [
          -87.66007327261542,
          41.969192580016504
        ]
      },
      "properties": {
        "group_id": "john-howard-association-of-illinois-jha",
        "name": "John Howard Association of Illinois (JHA)",
        "location_name": "Neighbourhood Centroid",
        "address": "Near North Side / Citywide",
        "verification_status": "VERIFIED",
        "category": "Prison Monitoring & Reform"
      }
    },
    {
      "type": "Feature",
      "geometry": {
        "type": "Point",
        "coordinates": [
          -87.6176123775963,
          41.76233886969449
        ]
      },
      "properties": {
        "group_id": "moms-united-against-violence-and-incarceration-muavi",
        "name": "Moms United Against Violence and Incarceration (MUAVI)",
        "location_name": "Neighbourhood Centroid",
        "address": "South Side / Citywide",
        "verification_status": "VERIFIED",
        "category": "Caregiver / Family Support"
      }
    },
    {
      "type": "Feature",
      "geometry": {
        "type": "Point",
        "coordinates": [
          -87.64435023164226,
          41.77189730309198
        ]
      },
      "properties": {
        "group_id": "precious-blood-ministry-of-reconciliation-pbmr",
        "name": "Precious Blood Ministry of Reconciliation (PBMR)",
        "location_name": "Neighbourhood Centroid",
        "address": "Back of the Yards / Englewood",
        "verification_status": "VERIFIED",
        "category": "Restorative Justice"
      }
    },
    {
      "type": "Feature",
      "geometry": {
        "type": "Point",
        "coordinates": [
          -87.65588273346654,
          41.97250436838527
        ]
      },
      "properties": {
        "group_id": "prison-neighborhood-arts-education-project-pnap",
        "name": "Prison + Neighborhood Arts/Education Project (PNAP)",
        "location_name": "Neighbourhood Centroid",
        "address": "Uptown",
        "verification_status": "VERIFIED",
        "category": "Books & Arts in Prison"
      }
    },
    {
      "type": "Feature",
      "geometry": {
        "type": "Point",
        "coordinates": [
          -87.7391352598241,
          41.88167043927506
        ]
      },
      "properties": {
        "group_id": "safer-foundation",
        "name": "Safer Foundation",
        "location_name": "Neighbourhood Centroid",
        "address": "Near West Side / Southwest Side",
        "verification_status": "VERIFIED",
        "category": "Reentry Support"
      }
    },
    {
      "type": "Feature",
      "geometry": {
        "type": "Point",
        "coordinates": [
          -87.65599335420485,
          41.97320732841608
        ]
      },
      "properties": {
        "group_id": "transformative-justice-law-project-of-illinois-tjlp",
        "name": "Transformative Justice Law Project of Illinois (TJLP)",
        "location_name": "Neighbourhood Centroid",
        "address": "Uptown",
        "verification_status": "VERIFIED",
        "category": "Legal Advocacy / Abolitionist"
      }
    },
    {
      "type": "Feature",
      "geometry": {
        "type": "Point",
        "coordinates": [
          -87.71828355987664,
          41.88232326301988
        ]
      },
      "properties": {
        "group_id": "transforming-reentry-services-mwipm",
        "name": "Transforming Reentry Services / MWIPM",
        "location_name": "Neighbourhood Centroid",
        "address": "Douglas / East Garfield Park",
        "verification_status": "VERIFIED",
        "category": "Reentry Support"
      }
    },
    {
      "type": "Feature",
      "geometry": {
        "type": "Point",
        "coordinates": [
          -87.72806799606084,
          41.96849762268291
        ]
      },
      "properties": {
        "group_id": "catholic-charities-of-chicago-immigrant-services",
        "name": "Catholic Charities of Chicago \u2014 Immigrant Services",
        "location_name": "Neighbourhood Centroid",
        "address": "Albany Park",
        "verification_status": "VERIFIED",
        "category": "Refugee Resettlement / Immigrant Services"
      }
    },
    {
      "type": "Feature",
      "geometry": {
        "type": "Point",
        "coordinates": [
          -87.66226179064367,
          41.988031323875965
        ]
      },
      "properties": {
        "group_id": "centro-romero",
        "name": "Centro Romero",
        "location_name": "Neighbourhood Centroid",
        "address": "Edgewater",
        "verification_status": "VERIFIED",
        "category": "Immigrant Community Services / Education"
      }
    },
    {
      "type": "Feature",
      "geometry": {
        "type": "Point",
        "coordinates": [
          -87.65800392895424,
          41.97460356961062
        ]
      },
      "properties": {
        "group_id": "ethiopian-community-association-of-chicago-ecac",
        "name": "Ethiopian Community Association of Chicago (ECAC)",
        "location_name": "Neighbourhood Centroid",
        "address": "Uptown",
        "verification_status": "VERIFIED",
        "category": "East African Immigrant Services"
      }
    },
    {
      "type": "Feature",
      "geometry": {
        "type": "Point",
        "coordinates": [
          -87.66150223759004,
          41.96808981461734
        ]
      },
      "properties": {
        "group_id": "mira-chicago-middle-eastern-immigrant-refugee-alliance",
        "name": "MIRA Chicago (Middle Eastern Immigrant & Refugee Alliance)",
        "location_name": "Neighbourhood Centroid",
        "address": "North Side / Lincolnwood",
        "verification_status": "VERIFIED",
        "category": "Middle Eastern Refugee & Immigrant Services"
      }
    },
    {
      "type": "Feature",
      "geometry": {
        "type": "Point",
        "coordinates": [
          -87.6611442945863,
          41.99706299024245
        ]
      },
      "properties": {
        "group_id": "refugeeone",
        "name": "RefugeeOne",
        "location_name": "Neighbourhood Centroid",
        "address": "West Rogers Park",
        "verification_status": "VERIFIED",
        "category": "Refugee Resettlement / Integration"
      }
    },
    {
      "type": "Feature",
      "geometry": {
        "type": "Point",
        "coordinates": [
          -87.66147347991233,
          41.855954806060076
        ]
      },
      "properties": {
        "group_id": "the-resurrection-project-trp-immigrant-justice",
        "name": "The Resurrection Project / TRP Immigrant Justice",
        "location_name": "Neighbourhood Centroid",
        "address": "Pilsen",
        "verification_status": "VERIFIED",
        "category": "Immigrant Legal Services / Community Organizing"
      }
    },
    {
      "type": "Feature",
      "geometry": {
        "type": "Point",
        "coordinates": [
          -87.72451796845773,
          41.96932034462443
        ]
      },
      "properties": {
        "group_id": "world-relief-chicagoland",
        "name": "World Relief Chicagoland",
        "location_name": "Neighbourhood Centroid",
        "address": "Albany Park",
        "verification_status": "VERIFIED",
        "category": "Refugee Resettlement / ESL / Employment"
      }
    },
    {
      "type": "Feature",
      "geometry": {
        "type": "Point",
        "coordinates": [
          -87.61858258148919,
          41.76023588145436
        ]
      },
      "properties": {
        "group_id": "young-center-for-immigrant-children-s-rights",
        "name": "Young Center for Immigrant Children's Rights",
        "location_name": "Neighbourhood Centroid",
        "address": "Near South Side",
        "verification_status": "VERIFIED",
        "category": "Unaccompanied Immigrant Children / Child Advocacy"
      }
    },
    {
      "type": "Feature",
      "geometry": {
        "type": "Point",
        "coordinates": [
          -87.64688510616948,
          41.7749707379213
        ]
      },
      "properties": {
        "group_id": "growing-home-inc",
        "name": "Growing Home Inc.",
        "location_name": "Neighbourhood Centroid",
        "address": "Englewood",
        "verification_status": "VERIFIED",
        "category": "Urban Agriculture / Workforce Development"
      }
    },
    {
      "type": "Feature",
      "geometry": {
        "type": "Point",
        "coordinates": [
          -87.72071731173129,
          41.88343306568125
        ]
      },
      "properties": {
        "group_id": "deborah-s-place",
        "name": "Deborah's Place",
        "location_name": "Neighbourhood Centroid",
        "address": "East Garfield Park / Citywide",
        "verification_status": "LIKELY_ACTIVE",
        "category": "Supportive Housing (Women)"
      }
    },
    {
      "type": "Feature",
      "geometry": {
        "type": "Point",
        "coordinates": [
          -87.65853371112735,
          41.9709059974173
        ]
      },
      "properties": {
        "group_id": "northside-housing-support-services-nshss",
        "name": "Northside Housing & Support Services (NSHSS)",
        "location_name": "Neighbourhood Centroid",
        "address": "Rogers Park / Uptown",
        "verification_status": "VERIFIED",
        "category": "Homeless Services / Emergency Shelter"
      }
    },
    {
      "type": "Feature",
      "geometry": {
        "type": "Point",
        "coordinates": [
          -87.66171839442517,
          41.85269353611588
        ]
      },
      "properties": {
        "group_id": "pilsen-alliance",
        "name": "Pilsen Alliance",
        "location_name": "Neighbourhood Centroid",
        "address": "Pilsen / Lower West Side",
        "verification_status": "VERIFIED",
        "category": "Community Organizing / Anti-Displacement"
      }
    },
    {
      "type": "Feature",
      "geometry": {
        "type": "Point",
        "coordinates": [
          -87.6558725726341,
          41.97464352046481
        ]
      },
      "properties": {
        "group_id": "sarah-s-circle",
        "name": "Sarah's Circle",
        "location_name": "Neighbourhood Centroid",
        "address": "Uptown",
        "verification_status": "VERIFIED",
        "category": "Homeless Services (Women)"
      }
    },
    {
      "type": "Feature",
      "geometry": {
        "type": "Point",
        "coordinates": [
          -87.5959289249993,
          41.794139378555414
        ]
      },
      "properties": {
        "group_id": "mandel-legal-aid-clinic-uchicago-law",
        "name": "Mandel Legal Aid Clinic (UChicago Law)",
        "location_name": "Neighbourhood Centroid",
        "address": "Hyde Park",
        "verification_status": "VERIFIED",
        "category": "Law School Legal Clinic"
      }
    },
    {
      "type": "Feature",
      "geometry": {
        "type": "Point",
        "coordinates": [
          -87.65762535772558,
          41.97105381971804
        ]
      },
      "properties": {
        "group_id": "uptown-people-s-law-center",
        "name": "Uptown People's Law Center",
        "location_name": "Neighbourhood Centroid",
        "address": "Uptown",
        "verification_status": "VERIFIED",
        "category": "Housing & Prisoner Rights Legal Aid"
      }
    },
    {
      "type": "Feature",
      "geometry": {
        "type": "Point",
        "coordinates": [
          -87.76743686503524,
          41.899175781024184
        ]
      },
      "properties": {
        "group_id": "austin-coming-together-act",
        "name": "Austin Coming Together (ACT)",
        "location_name": "Neighbourhood Centroid",
        "address": "Austin / West Side",
        "verification_status": "VERIFIED",
        "category": "Collective Impact / Neighborhood Advocacy"
      }
    },
    {
      "type": "Feature",
      "geometry": {
        "type": "Point",
        "coordinates": [
          -87.61797139244331,
          41.82430719190266
        ]
      },
      "properties": {
        "group_id": "bronzeville-community-development-partnership-bcdp",
        "name": "Bronzeville Community Development Partnership (BCDP)",
        "location_name": "Neighbourhood Centroid",
        "address": "Bronzeville",
        "verification_status": "VERIFIED",
        "category": "Community / Economic Development"
      }
    },
    {
      "type": "Feature",
      "geometry": {
        "type": "Point",
        "coordinates": [
          -87.76438809311487,
          41.900044918919676
        ]
      },
      "properties": {
        "group_id": "build-chicago-broader-urban-involvement-leadership-development",
        "name": "BUILD Chicago (Broader Urban Involvement & Leadership Development)",
        "location_name": "Neighbourhood Centroid",
        "address": "Austin / West Side",
        "verification_status": "VERIFIED",
        "category": "Youth Development / Community Advocacy"
      }
    },
    {
      "type": "Feature",
      "geometry": {
        "type": "Point",
        "coordinates": [
          -87.62121168492725,
          41.69246413527282
        ]
      },
      "properties": {
        "group_id": "developing-communities-project-dcp",
        "name": "Developing Communities Project (DCP)",
        "location_name": "Neighbourhood Centroid",
        "address": "Southeast Chicago (Roseland / Pullman)",
        "verification_status": "UNCERTAIN",
        "category": "Faith-Based / Community Organizing"
      }
    },
    {
      "type": "Feature",
      "geometry": {
        "type": "Point",
        "coordinates": [
          -87.61750103888212,
          41.761979351930925
        ]
      },
      "properties": {
        "group_id": "far-south-community-development-corporation-far-south-cdc",
        "name": "Far South Community Development Corporation (Far South CDC)",
        "location_name": "Neighbourhood Centroid",
        "address": "Far South Side (Roseland",
        "verification_status": "VERIFIED",
        "category": "Community / Economic Development"
      }
    },
    {
      "type": "Feature",
      "geometry": {
        "type": "Point",
        "coordinates": [
          -87.64434293937272,
          41.77436845502241
        ]
      },
      "properties": {
        "group_id": "good-kids-mad-city-gkmc-englewood",
        "name": "Good Kids Mad City (GKMC) \u2013 Englewood",
        "location_name": "Neighbourhood Centroid",
        "address": "Englewood / West Englewood",
        "verification_status": "VERIFIED",
        "category": "Youth Advocacy / Peace Building"
      }
    },
    {
      "type": "Feature",
      "geometry": {
        "type": "Point",
        "coordinates": [
          -87.60352498719953,
          41.75210798447023
        ]
      },
      "properties": {
        "group_id": "greater-chatham-initiative-gci",
        "name": "Greater Chatham Initiative (GCI)",
        "location_name": "Neighbourhood Centroid",
        "address": "Chatham / Greater Grand Crossing / Avalon Park / Auburn Gresham",
        "verification_status": "VERIFIED",
        "category": "Community / Economic Development"
      }
    },
    {
      "type": "Feature",
      "geometry": {
        "type": "Point",
        "coordinates": [
          -87.7065955125104,
          41.9239254922722
        ]
      },
      "properties": {
        "group_id": "logan-square-neighborhood-association-palenque-lsna",
        "name": "Logan Square Neighborhood Association / Palenque LSNA",
        "location_name": "Neighbourhood Centroid",
        "address": "Logan Square / Avondale / Hermosa",
        "verification_status": "VERIFIED",
        "category": "Community Organizing / Education & Housing Advocacy"
      }
    },
    {
      "type": "Feature",
      "geometry": {
        "type": "Point",
        "coordinates": [
          -87.73798678116482,
          41.882140970630296
        ]
      },
      "properties": {
        "group_id": "north-lawndale-community-coordinating-council-nlccc",
        "name": "North Lawndale Community Coordinating Council (NLCCC)",
        "location_name": "Neighbourhood Centroid",
        "address": "North Lawndale / West Side",
        "verification_status": "VERIFIED",
        "category": "Community Planning / Neighborhood Advocacy"
      }
    },
    {
      "type": "Feature",
      "geometry": {
        "type": "Point",
        "coordinates": [
          -87.72784929053923,
          41.95574842482456
        ]
      },
      "properties": {
        "group_id": "northwest-side-housing-center-nwshc",
        "name": "Northwest Side Housing Center (NWSHC)",
        "location_name": "Neighbourhood Centroid",
        "address": "Northwest Side (Belmont Cragin / Portage Park / Irving Park)",
        "verification_status": "VERIFIED",
        "category": "Housing Advocacy / Community Organizing"
      }
    },
    {
      "type": "Feature",
      "geometry": {
        "type": "Point",
        "coordinates": [
          -87.64839543951408,
          41.94399739085173
        ]
      },
      "properties": {
        "group_id": "one-northside-organizing-neighborhoods-for-equality",
        "name": "ONE Northside (Organizing Neighborhoods for Equality)",
        "location_name": "Neighbourhood Centroid",
        "address": "Rogers Park / Edgewater / Uptown / Lakeview / North Center / Lincoln Park",
        "verification_status": "VERIFIED",
        "category": "Community Organizing / Neighborhood Advocacy"
      }
    },
    {
      "type": "Feature",
      "geometry": {
        "type": "Point",
        "coordinates": [
          -87.6616454813667,
          41.853809252269244
        ]
      },
      "properties": {
        "group_id": "pilsen-neighbors-community-council-pncc",
        "name": "Pilsen Neighbors Community Council (PNCC)",
        "location_name": "Neighbourhood Centroid",
        "address": "Pilsen / Lower West Side",
        "verification_status": "VERIFIED",
        "category": "Community Organizing / Advocacy"
      }
    },
    {
      "type": "Feature",
      "geometry": {
        "type": "Point",
        "coordinates": [
          -87.74047615076216,
          41.88015384049811
        ]
      },
      "properties": {
        "group_id": "southwest-organizing-project-swop",
        "name": "Southwest Organizing Project (SWOP)",
        "location_name": "Neighbourhood Centroid",
        "address": "Southwest Side (West Elsdon / West Lawn / Gage Park / Chicago Lawn / Ashburn)",
        "verification_status": "VERIFIED",
        "category": "Community Organizing / Neighborhood Advocacy"
      }
    },
    {
      "type": "Feature",
      "geometry": {
        "type": "Point",
        "coordinates": [
          -87.76496001302918,
          41.89675413135275
        ]
      },
      "properties": {
        "group_id": "westside-health-authority-wha",
        "name": "Westside Health Authority (WHA)",
        "location_name": "Neighbourhood Centroid",
        "address": "Austin / West Side",
        "verification_status": "VERIFIED",
        "category": "Community Health / Neighborhood Development"
      }
    },
    {
      "type": "Feature",
      "geometry": {
        "type": "Point",
        "coordinates": [
          -87.72245284695076,
          41.901057160022
        ]
      },
      "properties": {
        "group_id": "humboldt-park-solidarity-network-casa-hernandez",
        "name": "Humboldt Park Solidarity Network (Casa Hernandez)",
        "location_name": "Neighbourhood Centroid",
        "address": "Humboldt Park",
        "verification_status": "VERIFIED",
        "category": "Neighborhood Mutual Aid / Free Store"
      }
    },
    {
      "type": "Feature",
      "geometry": {
        "type": "Point",
        "coordinates": [
          -87.64780950602947,
          41.94235956418407
        ]
      },
      "properties": {
        "group_id": "lakeview-lincoln-park-mutual-aid-network-llma",
        "name": "Lakeview / Lincoln Park Mutual Aid Network (LLMA)",
        "location_name": "Neighbourhood Centroid",
        "address": "Lakeview / Lincoln Park",
        "verification_status": "VERIFIED",
        "category": "Neighborhood Mutual Aid Network"
      }
    },
    {
      "type": "Feature",
      "geometry": {
        "type": "Point",
        "coordinates": [
          -87.64951637615076,
          41.94325943152197
        ]
      },
      "properties": {
        "group_id": "howard-brown-health",
        "name": "Howard Brown Health",
        "location_name": "Neighbourhood Centroid",
        "address": "Multiple (Lakeview",
        "verification_status": "VERIFIED",
        "category": "LGBTQ+ Healthcare"
      }
    },
    {
      "type": "Feature",
      "geometry": {
        "type": "Point",
        "coordinates": [
          -87.65760108865986,
          41.97353126303285
        ]
      },
      "properties": {
        "group_id": "test-positive-aware-network-tpan",
        "name": "Test Positive Aware Network (TPAN)",
        "location_name": "Neighbourhood Centroid",
        "address": "Uptown",
        "verification_status": "VERIFIED",
        "category": "HIV/AIDS Support / Harm Reduction"
      }
    },
    {
      "type": "Feature",
      "geometry": {
        "type": "Point",
        "coordinates": [
          -87.74224576352509,
          41.880811766528986
        ]
      },
      "properties": {
        "group_id": "chicago-lighthouse",
        "name": "Chicago Lighthouse",
        "location_name": "Neighbourhood Centroid",
        "address": "Near West Side",
        "verification_status": "VERIFIED",
        "category": "Disability / Vision Services"
      }
    },
    {
      "type": "Feature",
      "geometry": {
        "type": "Point",
        "coordinates": [
          -87.72851845696793,
          41.953613393190906
        ]
      },
      "properties": {
        "group_id": "communityhealth",
        "name": "CommunityHealth",
        "location_name": "Neighbourhood Centroid",
        "address": "Ukrainian Village / Irving Park",
        "verification_status": "VERIFIED",
        "category": "Free Clinic / Primary Care"
      }
    },
    {
      "type": "Feature",
      "geometry": {
        "type": "Point",
        "coordinates": [
          -87.72210985026723,
          41.90095256478128
        ]
      },
      "properties": {
        "group_id": "connections-for-abused-women-and-their-children-cawc",
        "name": "Connections for Abused Women and Their Children (CAWC)",
        "location_name": "Neighbourhood Centroid",
        "address": "Humboldt Park",
        "verification_status": "VERIFIED",
        "category": "Domestic Violence / Health"
      }
    },
    {
      "type": "Feature",
      "geometry": {
        "type": "Point",
        "coordinates": [
          -87.65634650406814,
          41.97557297673217
        ]
      },
      "properties": {
        "group_id": "heartland-health-outreach",
        "name": "Heartland Health Outreach",
        "location_name": "Neighbourhood Centroid",
        "address": "Uptown / Citywide",
        "verification_status": "VERIFIED",
        "category": "Community Health Center"
      }
    },
    {
      "type": "Feature",
      "geometry": {
        "type": "Point",
        "coordinates": [
          -87.65861404210742,
          41.972527726791235
        ]
      },
      "properties": {
        "group_id": "nami-chicago",
        "name": "NAMI Chicago",
        "location_name": "Neighbourhood Centroid",
        "address": "Uptown",
        "verification_status": "VERIFIED",
        "category": "Mental Health"
      }
    },
    {
      "type": "Feature",
      "geometry": {
        "type": "Point",
        "coordinates": [
          -87.7424078373025,
          41.88070280162898
        ]
      },
      "properties": {
        "group_id": "rush-university-medical-center",
        "name": "Rush University Medical Center",
        "location_name": "Neighbourhood Centroid",
        "address": "Near West Side",
        "verification_status": "VERIFIED",
        "category": "Hospital / Health System"
      }
    },
    {
      "type": "Feature",
      "geometry": {
        "type": "Point",
        "coordinates": [
          -87.66345470306815,
          41.85316724227065
        ]
      },
      "properties": {
        "group_id": "saint-anthony-hospital",
        "name": "Saint Anthony Hospital",
        "location_name": "Neighbourhood Centroid",
        "address": "West Side / Pilsen",
        "verification_status": "VERIFIED",
        "category": "Hospital / Health System"
      }
    },
    {
      "type": "Feature",
      "geometry": {
        "type": "Point",
        "coordinates": [
          -87.71960266360293,
          41.89783908716597
        ]
      },
      "properties": {
        "group_id": "sinai-chicago-mount-sinai-hospital",
        "name": "Sinai Chicago (Mount Sinai Hospital)",
        "location_name": "Neighbourhood Centroid",
        "address": "North Lawndale / Humboldt Park",
        "verification_status": "VERIFIED",
        "category": "Hospital / Health System"
      }
    },
    {
      "type": "Feature",
      "geometry": {
        "type": "Point",
        "coordinates": [
          -87.59686643583973,
          41.796024104973036
        ]
      },
      "properties": {
        "group_id": "uchicago-medicine-comer-children-s-hospital",
        "name": "UChicago Medicine / Comer Children's Hospital",
        "location_name": "Neighbourhood Centroid",
        "address": "Hyde Park",
        "verification_status": "VERIFIED",
        "category": "Hospital / Health System"
      }
    },
    {
      "type": "Feature",
      "geometry": {
        "type": "Point",
        "coordinates": [
          -87.73750160786906,
          41.88058504476062
        ]
      },
      "properties": {
        "group_id": "ui-health-university-of-illinois-hospital",
        "name": "UI Health (University of Illinois Hospital)",
        "location_name": "Neighbourhood Centroid",
        "address": "Near West Side / Medical District",
        "verification_status": "VERIFIED",
        "category": "Hospital / Health System"
      }
    },
    {
      "type": "Feature",
      "geometry": {
        "type": "Point",
        "coordinates": [
          -87.71874424005635,
          41.87961700321284
        ]
      },
      "properties": {
        "group_id": "bethel-new-life",
        "name": "Bethel New Life",
        "location_name": "Neighbourhood Centroid",
        "address": "West Garfield Park",
        "verification_status": "VERIFIED",
        "category": "Community Development/Housing"
      }
    },
    {
      "type": "Feature",
      "geometry": {
        "type": "Point",
        "coordinates": [
          -87.73790505334244,
          41.87973061835536
        ]
      },
      "properties": {
        "group_id": "greater-southwest-development-corporation-gsdc",
        "name": "Greater Southwest Development Corporation (GSDC)",
        "location_name": "Neighbourhood Centroid",
        "address": "Chicago Lawn / Southwest Side",
        "verification_status": "VERIFIED",
        "category": "Commercial & Economic Development"
      }
    },
    {
      "type": "Feature",
      "geometry": {
        "type": "Point",
        "coordinates": [
          -87.6207470542268,
          41.758583911623695
        ]
      },
      "properties": {
        "group_id": "far-south-community-development-corporation",
        "name": "Far South Community Development Corporation",
        "location_name": "Neighbourhood Centroid",
        "address": "Far South Side / South Suburbs",
        "verification_status": "VERIFIED",
        "category": "Economic & Community Development"
      }
    },
    {
      "type": "Feature",
      "geometry": {
        "type": "Point",
        "coordinates": [
          -87.74176577789373,
          41.88354922666429
        ]
      },
      "properties": {
        "group_id": "near-west-side-community-development-corporation-nwscdc",
        "name": "Near West Side Community Development Corporation (NWSCDC)",
        "location_name": "Neighbourhood Centroid",
        "address": "Near West Side",
        "verification_status": "VERIFIED",
        "category": "Community Development/Social Services"
      }
    },
    {
      "type": "Feature",
      "geometry": {
        "type": "Point",
        "coordinates": [
          -87.66455507259309,
          41.75277479765274
        ]
      },
      "properties": {
        "group_id": "neighborhood-housing-services-of-chicago-nhs",
        "name": "Neighborhood Housing Services of Chicago (NHS)",
        "location_name": "Neighbourhood Centroid",
        "address": "Citywide (Auburn Gresham",
        "verification_status": "VERIFIED",
        "category": "Housing/Community Development"
      }
    },
    {
      "type": "Feature",
      "geometry": {
        "type": "Point",
        "coordinates": [
          -87.6647368985181,
          41.75254081658404
        ]
      },
      "properties": {
        "group_id": "greater-auburn-gresham-development-corporation-gadc",
        "name": "Greater Auburn-Gresham Development Corporation (GADC)",
        "location_name": "Neighbourhood Centroid",
        "address": "Auburn Gresham",
        "verification_status": "VERIFIED",
        "category": "Economic & Community Development"
      }
    },
    {
      "type": "Feature",
      "geometry": {
        "type": "Point",
        "coordinates": [
          -87.66183830853971,
          41.85231780615251
        ]
      },
      "properties": {
        "group_id": "pilsen-neighbors-community-council",
        "name": "Pilsen Neighbors Community Council",
        "location_name": "Neighbourhood Centroid",
        "address": "Pilsen",
        "verification_status": "VERIFIED",
        "category": "Community Development/Organizing"
      }
    },
    {
      "type": "Feature",
      "geometry": {
        "type": "Point",
        "coordinates": [
          -87.66401545020574,
          41.852424097351495
        ]
      },
      "properties": {
        "group_id": "the-resurrection-project",
        "name": "The Resurrection Project",
        "location_name": "Neighbourhood Centroid",
        "address": "Pilsen / Little Village / Back of the Yards",
        "verification_status": "VERIFIED",
        "category": "Affordable Housing & Community Development"
      }
    },
    {
      "type": "Feature",
      "geometry": {
        "type": "Point",
        "coordinates": [
          -87.64564261285948,
          41.771233305812466
        ]
      },
      "properties": {
        "group_id": "greater-englewood-community-development-corporation-gecdc",
        "name": "Greater Englewood Community Development Corporation (GECDC)",
        "location_name": "Neighbourhood Centroid",
        "address": "Englewood",
        "verification_status": "VERIFIED",
        "category": "Economic & Community Development"
      }
    },
    {
      "type": "Feature",
      "geometry": {
        "type": "Point",
        "coordinates": [
          -87.61878984926868,
          41.82298613804357
        ]
      },
      "properties": {
        "group_id": "quad-communities-development-corporation-qcdc",
        "name": "Quad Communities Development Corporation (QCDC)",
        "location_name": "Neighbourhood Centroid",
        "address": "Bronzeville / Douglas / Grand Boulevard / Oakland",
        "verification_status": "VERIFIED",
        "category": "Community Development/Planning"
      }
    },
    {
      "type": "Feature",
      "geometry": {
        "type": "Point",
        "coordinates": [
          -87.763465366031,
          41.90127991102079
        ]
      },
      "properties": {
        "group_id": "westside-health-authority",
        "name": "Westside Health Authority",
        "location_name": "Neighbourhood Centroid",
        "address": "Austin",
        "verification_status": "VERIFIED",
        "category": "Health & Community Development"
      }
    },
    {
      "type": "Feature",
      "geometry": {
        "type": "Point",
        "coordinates": [
          -87.64999410939778,
          41.832252381104226
        ]
      },
      "properties": {
        "group_id": "coalition-for-a-better-chinese-american-community-cbcac",
        "name": "Coalition for a Better Chinese American Community (CBCAC)",
        "location_name": "Neighbourhood Centroid",
        "address": "Chinatown / Bridgeport",
        "verification_status": "VERIFIED",
        "category": "Community Development/Advocacy"
      }
    },
    {
      "type": "Feature",
      "geometry": {
        "type": "Point",
        "coordinates": [
          -87.72355587331508,
          41.900820372756435
        ]
      },
      "properties": {
        "group_id": "spanish-coalition-for-housing",
        "name": "Spanish Coalition for Housing",
        "location_name": "Neighbourhood Centroid",
        "address": "Humboldt Park / Citywide",
        "verification_status": "VERIFIED",
        "category": "Affordable Housing/Community Development"
      }
    },
    {
      "type": "Feature",
      "geometry": {
        "type": "Point",
        "coordinates": [
          -87.76786761501238,
          41.89791762947781
        ]
      },
      "properties": {
        "group_id": "south-austin-coalition-community-council",
        "name": "South Austin Coalition Community Council",
        "location_name": "Neighbourhood Centroid",
        "address": "Austin",
        "verification_status": "LIKELY_ACTIVE",
        "category": "Community Organizing/Development"
      }
    },
    {
      "type": "Feature",
      "geometry": {
        "type": "Point",
        "coordinates": [
          -87.62235726879206,
          41.75769875438903
        ]
      },
      "properties": {
        "group_id": "people-for-community-recovery-pcr",
        "name": "People for Community Recovery (PCR)",
        "location_name": "Neighbourhood Centroid",
        "address": "Altgeld Gardens / Far South Side",
        "verification_status": "VERIFIED",
        "category": "Environmental Justice/Community Organizing"
      }
    },
    {
      "type": "Feature",
      "geometry": {
        "type": "Point",
        "coordinates": [
          -87.66200727102564,
          41.85612911826728
        ]
      },
      "properties": {
        "group_id": "pilsen-environmental-rights-and-reform-organization-perro",
        "name": "Pilsen Environmental Rights and Reform Organization (PERRO)",
        "location_name": "Neighbourhood Centroid",
        "address": "Pilsen",
        "verification_status": "VERIFIED",
        "category": "Environmental Justice/Community Organizing"
      }
    },
    {
      "type": "Feature",
      "geometry": {
        "type": "Point",
        "coordinates": [
          -87.74067793686788,
          41.88356002207489
        ]
      },
      "properties": {
        "group_id": "neighbors-for-environmental-justice-n4ej",
        "name": "Neighbors For Environmental Justice (N4EJ)",
        "location_name": "Neighbourhood Centroid",
        "address": "Southwest Side / Citywide",
        "verification_status": "VERIFIED",
        "category": "Environmental Justice/Community Organizing"
      }
    },
    {
      "type": "Feature",
      "geometry": {
        "type": "Point",
        "coordinates": [
          -87.61955113846194,
          41.75979751286725
        ]
      },
      "properties": {
        "group_id": "community-awareness-response-encouraging-sustainability-cares",
        "name": "Community Awareness Response Encouraging Sustainability (CARES)",
        "location_name": "Neighbourhood Centroid",
        "address": "South Side",
        "verification_status": "UNCERTAIN",
        "category": "Environmental Justice/Education"
      }
    },
    {
      "type": "Feature",
      "geometry": {
        "type": "Point",
        "coordinates": [
          -87.66073629219174,
          41.85401892834513
        ]
      },
      "properties": {
        "group_id": "centro-comunitario-juan-diego",
        "name": "Centro Comunitario Juan Diego",
        "location_name": "Neighbourhood Centroid",
        "address": "Pilsen",
        "verification_status": "LIKELY_ACTIVE",
        "category": "Environmental Justice/Community Services"
      }
    },
    {
      "type": "Feature",
      "geometry": {
        "type": "Point",
        "coordinates": [
          -87.62068906363527,
          41.76180581703595
        ]
      },
      "properties": {
        "group_id": "chifresh-kitchen",
        "name": "ChiFresh Kitchen",
        "location_name": "Neighbourhood Centroid",
        "address": "Greater Grand Crossing / South Side",
        "verification_status": "VERIFIED",
        "category": "Worker Cooperative / Food Service"
      }
    },
    {
      "type": "Feature",
      "geometry": {
        "type": "Point",
        "coordinates": [
          -87.76613973574695,
          41.90104211918141
        ]
      },
      "properties": {
        "group_id": "chicago-tool-library",
        "name": "Chicago Tool Library",
        "location_name": "Neighbourhood Centroid",
        "address": "Austin / West Side",
        "verification_status": "VERIFIED",
        "category": "Sharing Economy / Community Cooperative"
      }
    },
    {
      "type": "Feature",
      "geometry": {
        "type": "Point",
        "coordinates": [
          -87.64439592452898,
          41.77150811245271
        ]
      },
      "properties": {
        "group_id": "grow-greater-englewood-gge",
        "name": "Grow Greater Englewood (GGE)",
        "location_name": "Neighbourhood Centroid",
        "address": "Englewood",
        "verification_status": "VERIFIED",
        "category": "Food Justice / Urban Agriculture / Economic Development"
      }
    },
    {
      "type": "Feature",
      "geometry": {
        "type": "Point",
        "coordinates": [
          -87.65786595212128,
          41.971468994678105
        ]
      },
      "properties": {
        "group_id": "new-era-windows-cooperative",
        "name": "New Era Windows Cooperative",
        "location_name": "Neighbourhood Centroid",
        "address": "Goose Island / Near North Side",
        "verification_status": "VERIFIED",
        "category": "Worker Cooperative / Manufacturing"
      }
    },
    {
      "type": "Feature",
      "geometry": {
        "type": "Point",
        "coordinates": [
          -87.59519867108966,
          41.77430677115274
        ]
      },
      "properties": {
        "group_id": "southside-together-organizing-for-power-stop",
        "name": "Southside Together Organizing for Power (STOP)",
        "location_name": "Neighbourhood Centroid",
        "address": "Woodlawn / South Side",
        "verification_status": "VERIFIED",
        "category": "Community Organizing / Economic Justice"
      }
    },
    {
      "type": "Feature",
      "geometry": {
        "type": "Point",
        "coordinates": [
          -87.62050345960714,
          41.759823858426515
        ]
      },
      "properties": {
        "group_id": "ujamaa-community-land-trust",
        "name": "Ujamaa Community Land Trust",
        "location_name": "Neighbourhood Centroid",
        "address": "South Side",
        "verification_status": "LIKELY_ACTIVE",
        "category": "Community Land Trust / Economic Justice"
      }
    },
    {
      "type": "Feature",
      "geometry": {
        "type": "Point",
        "coordinates": [
          -87.73792688182373,
          41.88042754736207
        ]
      },
      "properties": {
        "group_id": "warehouse-workers-for-justice-wwj",
        "name": "Warehouse Workers for Justice (WWJ)",
        "location_name": "Neighbourhood Centroid",
        "address": "Southwest Side / Citywide",
        "verification_status": "VERIFIED",
        "category": "Labor Justice / Worker Rights"
      }
    },
    {
      "type": "Feature",
      "geometry": {
        "type": "Point",
        "coordinates": [
          -87.66181765298833,
          41.998580703868875
        ]
      },
      "properties": {
        "group_id": "wild-onion-market",
        "name": "Wild Onion Market",
        "location_name": "Neighbourhood Centroid",
        "address": "Rogers Park",
        "verification_status": "VERIFIED",
        "category": "Consumer Cooperative / Food Justice"
      }
    },
    {
      "type": "Feature",
      "geometry": {
        "type": "Point",
        "coordinates": [
          -87.61756982223363,
          41.75903747989577
        ]
      },
      "properties": {
        "group_id": "family-rescue",
        "name": "Family Rescue",
        "location_name": "Neighbourhood Centroid",
        "address": "South Side (Stony Island Ave)",
        "verification_status": "VERIFIED",
        "category": "Domestic Violence Shelter & Services"
      }
    },
    {
      "type": "Feature",
      "geometry": {
        "type": "Point",
        "coordinates": [
          -87.658444145772,
          41.969067540973924
        ]
      },