{
  "type": "FeatureCollection",
  "features": [
    {
      "type": "Feature",
      "geometry": {
        "type": "Point",
        "coordinates": [
          -87.654278,
          41.764971
        ]
      },
      "properties": {
        "group_id": "cooperation-racine",
        "name": "Cooperation Racine",
        "location_name": "",
        "address": "1201 W 71st St",
        "verification_status": "VERIFIED",
        "category": "Worker Co-ops & Economic Justice"
      }
    },
    {
      "type": "Feature",
      "geometry": {
        "type": "Point",
        "coordinates": [
          -87.6411518,
          41.8378541
        ]
      },
      "properties": {
        "group_id": "mouse-arts-letters",
        "name": "mouse-arts-letters",
        "location_name": "",
        "address": "555 W 31st St",
        "verification_status": "UNCERTAIN",
        "category": ""
      }
    },
    {
      "type": "Feature",
      "geometry": {
        "type": "Point",
        "coordinates": [
          -87.6565482,
          41.8309771
        ]
      },
      "properties": {
        "group_id": "bridgeport-alliance",
        "name": "Bridgeport Alliance",
        "location_name": "",
        "address": "1200 W 35th St",
        "verification_status": "VERIFIED",
        "category": "Community Advocacy"
      }
    },
    {
      "type": "Feature",
      "geometry": {
        "type": "Point",
        "coordinates": [
          -87.6238726,
          41.7378107
        ]
      },
      "properties": {
        "group_id": "chatham-avalon-ministries",
        "name": "Chatham-Avalon Ministries",
        "location_name": "",
        "address": "8601 S State St",
        "verification_status": "VERIFIED",
        "category": "Food Security"
      }
    },
    {
      "type": "Feature",
      "geometry": {
        "type": "Point",
        "coordinates": [
          -87.6211704,
          41.6964894
        ]
      },
      "properties": {
        "group_id": "roseland-christian-ministries",
        "name": "Roseland Christian Ministries",
        "location_name": "",
        "address": "10858 S Michigan Ave",
        "verification_status": "VERIFIED",
        "category": "Food Security"
      }
    },
    {
      "type": "Feature",
      "geometry": {
        "type": "Point",
        "coordinates": [
          -87.6418495,
          41.68791
        ]
      },
      "properties": {
        "group_id": "sheldon-heights-pantry",
        "name": "sheldon-heights-pantry",
        "location_name": "",
        "address": "11325 S Halsted St",
        "verification_status": "UNCERTAIN",
        "category": ""
      }
    },
    {
      "type": "Feature",
      "geometry": {
        "type": "Point",
        "coordinates": [
          -87.6519522,
          41.7507436
        ]
      },
      "properties": {
        "group_id": "st-sabina-pantry",
        "name": "st-sabina-pantry",
        "location_name": "",
        "address": "1120 W 79th St",
        "verification_status": "UNCERTAIN",
        "category": ""
      }
    },
    {
      "type": "Feature",
      "geometry": {
        "type": "Point",
        "coordinates": [
          -87.6558462,
          41.9734307
        ]
      },
      "properties": {
        "group_id": "chinese-mutual-aid",
        "name": "chinese-mutual-aid",
        "location_name": "",
        "address": "1016 W Argyle St",
        "verification_status": "UNCERTAIN",
        "category": ""
      }
    },
    {
      "type": "Feature",
      "geometry": {
        "type": "Point",
        "coordinates": [
          -87.6291299,
          41.8829338
        ]
      },
      "properties": {
        "group_id": "cvls",
        "name": "cvls",
        "location_name": "",
        "address": "33 N Dearborn St",
        "verification_status": "UNCERTAIN",
        "category": ""
      }
    },
    {
      "type": "Feature",
      "geometry": {
        "type": "Point",
        "coordinates": [
          -87.716317,
          41.887647
        ]
      },
      "properties": {
        "group_id": "garfield-park-cc",
        "name": "garfield-park-cc",
        "location_name": "",
        "address": "300 N Central Park Ave",
        "verification_status": "UNCERTAIN",
        "category": ""
      }
    },
    {
      "type": "Feature",
      "geometry": {
        "type": "Point",
        "coordinates": [
          -87.6595159,
          41.8277727
        ]
      },
      "properties": {
        "group_id": "love-fridge-chicago",
        "name": "Love Fridge Chicago",
        "location_name": "The Fridge on Marz",
        "address": "3630 S Iron St",
        "verification_status": "VERIFIED",
        "category": "Mutual Aid / Community Fridges"
      }
    },
    {
      "type": "Feature",
      "geometry": {
        "type": "Point",
        "coordinates": [
          -87.5313533,
          41.6916639
        ]
      },
      "properties": {
        "group_id": "love-fridge-chicago",
        "name": "Love Fridge Chicago",
        "location_name": "The Kindness Korner",
        "address": "11201 S Ave G",
        "verification_status": "VERIFIED",
        "category": "Mutual Aid / Community Fridges"
      }
    },
    {
      "type": "Feature",
      "geometry": {
        "type": "Point",
        "coordinates": [
          -87.6946065,
          41.8536568
        ]
      },
      "properties": {
        "group_id": "love-fridge-chicago",
        "name": "Love Fridge Chicago",
        "location_name": "The Love Shack",
        "address": "2751 W 21st St",
        "verification_status": "VERIFIED",
        "category": "Mutual Aid / Community Fridges"
      }
    },
    {
      "type": "Feature",
      "geometry": {
        "type": "Point",
        "coordinates": [
          -87.7074257,
          41.9174776
        ]
      },
      "properties": {
        "group_id": "love-fridge-chicago",
        "name": "Love Fridge Chicago",
        "location_name": "BInk Food Bank",
        "address": "3206 W Armitage Ave",
        "verification_status": "VERIFIED",
        "category": "Mutual Aid / Community Fridges"
      }
    },
    {
      "type": "Feature",
      "geometry": {
        "type": "Point",
        "coordinates": [
          -87.6620178,
          41.8562604
        ]
      },
      "properties": {
        "group_id": "love-fridge-chicago",
        "name": "Love Fridge Chicago",
        "location_name": "Comida Para el Pueblo",
        "address": "1855 S Blue Island Ave",
        "verification_status": "VERIFIED",
        "category": "Mutual Aid / Community Fridges"
      }
    },
    {
      "type": "Feature",
      "geometry": {
        "type": "Point",
        "coordinates": [
          -87.6497246,
          41.7785766
        ]
      },
      "properties": {
        "group_id": "love-fridge-chicago",
        "name": "Love Fridge Chicago",
        "location_name": "Getting Grown Collective",
        "address": "6344 S Morgan St",
        "verification_status": "VERIFIED",
        "category": "Mutual Aid / Community Fridges"
      }
    },
    {
      "type": "Feature",
      "geometry": {
        "type": "Point",
        "coordinates": [
          -87.7222975,
          41.7730604
        ]
      },
      "properties": {
        "group_id": "love-fridge-chicago",
        "name": "Love Fridge Chicago",
        "location_name": "Good Neighbor Love Fridge",
        "address": "6601 S Pulaski Rd",
        "verification_status": "VERIFIED",
        "category": "Mutual Aid / Community Fridges"
      }
    },
    {
      "type": "Feature",
      "geometry": {
        "type": "Point",
        "coordinates": [
          -87.6151687,
          41.7603438
        ]
      },
      "properties": {
        "group_id": "love-fridge-chicago",
        "name": "Love Fridge Chicago",
        "location_name": "Sacred Keepers Love Fridge",
        "address": "4445 S King Dr",
        "verification_status": "VERIFIED",
        "category": "Mutual Aid / Community Fridges"
      }
    },
    {
      "type": "Feature",
      "geometry": {
        "type": "Point",
        "coordinates": [
          -87.56404,
          41.7606293
        ]
      },
      "properties": {
        "group_id": "love-fridge-chicago",
        "name": "Love Fridge Chicago",
        "location_name": "South Shore Love Fridge",
        "address": "2465 E 74th St",
        "verification_status": "VERIFIED",
        "category": "Mutual Aid / Community Fridges"
      }
    },
    {
      "type": "Feature",
      "geometry": {
        "type": "Point",
        "coordinates": [
          -87.6719365,
          41.8000647
        ]
      },
      "properties": {
        "group_id": "love-fridge-chicago",
        "name": "Love Fridge Chicago",
        "location_name": "Star Farm Love Fridge",
        "address": "5155 S Wolcott Ave",
        "verification_status": "VERIFIED",
        "category": "Mutual Aid / Community Fridges"
      }
    },
    {
      "type": "Feature",
      "geometry": {
        "type": "Point",
        "coordinates": [
          -87.7161716,
          41.8629262
        ]
      },
      "properties": {
        "group_id": "love-fridge-chicago",
        "name": "Love Fridge Chicago",
        "location_name": "Stone Temple Fridge",
        "address": "3622 W Douglas Blvd",
        "verification_status": "VERIFIED",
        "category": "Mutual Aid / Community Fridges"
      }
    },
    {
      "type": "Feature",
      "geometry": {
        "type": "Point",
        "coordinates": [
          -87.65322192799123,
          41.83046852458546
        ]
      },
      "properties": {
        "group_id": "urban-growers-collective",
        "name": "Urban Growers Collective",
        "location_name": "Neighbourhood Centroid",
        "address": "Bridgeport/Armour",
        "verification_status": "VERIFIED",
        "category": "Food Security"
      }
    },
    {
      "type": "Feature",
      "geometry": {
        "type": "Point",
        "coordinates": [
          -87.59395234777357,
          41.77390804674434
        ]
      },
      "properties": {
        "group_id": "southside-nature-play",
        "name": "Southside Nature Play",
        "location_name": "Neighbourhood Centroid",
        "address": "Woodlawn",
        "verification_status": "LIKELY_ACTIVE",
        "category": "Environmental & Green Space"
      }
    },
    {
      "type": "Feature",
      "geometry": {
        "type": "Point",
        "coordinates": [
          -87.61910836557205,
          41.82449148251994
        ]
      },
      "properties": {
        "group_id": "lake-meadows-park-advisory-council",
        "name": "Lake Meadows Park Advisory Council",
        "location_name": "Neighbourhood Centroid",
        "address": "Bronzeville",
        "verification_status": "UNCERTAIN",
        "category": "Environmental & Green Space"
      }
    },
    {
      "type": "Feature",
      "geometry": {
        "type": "Point",
        "coordinates": [
          -87.61999894246848,
          41.81986143692079
        ]
      },
      "properties": {
        "group_id": "mouse-arts-letters-social-club",
        "name": "Mouse Arts & Letters Social Club",
        "location_name": "Neighbourhood Centroid",
        "address": "Bronzeville",
        "verification_status": "UNCERTAIN",
        "category": "Arts & Culture"
      }
    },
    {
      "type": "Feature",
      "geometry": {
        "type": "Point",
        "coordinates": [
          -87.70699072953254,
          41.94503949858747
        ]
      },
      "properties": {
        "group_id": "avondale-mutual-aid",
        "name": "Avondale Mutual Aid",
        "location_name": "Neighbourhood Centroid",
        "address": "Avondale",
        "verification_status": "VERIFIED",
        "category": "Mutual Aid - General"
      }
    },
    {
      "type": "Feature",
      "geometry": {
        "type": "Point",
        "coordinates": [
          -87.66130068289559,
          41.98998027986894
        ]
      },
      "properties": {
        "group_id": "edgewater-mutual-aid-eman",
        "name": "Edgewater Mutual Aid (EMAN)",
        "location_name": "Neighbourhood Centroid",
        "address": "Edgewater",
        "verification_status": "VERIFIED",
        "category": "Mutual Aid - General"
      }
    },
    {
      "type": "Feature",
      "geometry": {
        "type": "Point",
        "coordinates": [
          -87.68559643508863,
          42.044533201313264
        ]
      },
      "properties": {
        "group_id": "evanston-community-fridges",
        "name": "Evanston Community Fridges",
        "location_name": "Neighbourhood Centroid",
        "address": "Evanston",
        "verification_status": "VERIFIED",
        "category": "Food Security"
      }
    },
    {
      "type": "Feature",
      "geometry": {
        "type": "Point",
        "coordinates": [
          -87.70754224000626,
          41.92072211983618
        ]
      },
      "properties": {
        "group_id": "logan-square-mutual-aid",
        "name": "Logan Square Mutual Aid",
        "location_name": "Neighbourhood Centroid",
        "address": "Logan Square",
        "verification_status": "VERIFIED",
        "category": "Mutual Aid - General"
      }
    },
    {
      "type": "Feature",
      "geometry": {
        "type": "Point",
        "coordinates": [
          -87.66032359338134,
          41.854930133357804
        ]
      },
      "properties": {
        "group_id": "pilsen-solidarity-network",
        "name": "Pilsen Solidarity Network",
        "location_name": "Neighbourhood Centroid",
        "address": "Pilsen",
        "verification_status": "VERIFIED",
        "category": "Mutual Aid - General"
      }
    },
    {
      "type": "Feature",
      "geometry": {
        "type": "Point",
        "coordinates": [
          -87.76669130115766,
          41.9009575840162
        ]
      },
      "properties": {
        "group_id": "westside-mutual-aid",
        "name": "Westside Mutual Aid",
        "location_name": "Neighbourhood Centroid",
        "address": "Austin",
        "verification_status": "VERIFIED",
        "category": "Mutual Aid - General"
      }
    },
    {
      "type": "Feature",
      "geometry": {
        "type": "Point",
        "coordinates": [
          -87.72597142988062,
          41.96768220934166
        ]
      },
      "properties": {
        "group_id": "albany-park-mutual-aid",
        "name": "Albany Park Mutual Aid",
        "location_name": "Neighbourhood Centroid",
        "address": "Albany Park",
        "verification_status": "VERIFIED",
        "category": "Mutual Aid - General"
      }
    },
    {
      "type": "Feature",
      "geometry": {
        "type": "Point",
        "coordinates": [
          -87.72263544739923,
          41.90101864093349
        ]
      },
      "properties": {
        "group_id": "hp-solidarity-network",
        "name": "HP Solidarity Network",
        "location_name": "Neighbourhood Centroid",
        "address": "Humboldt Park",
        "verification_status": "VERIFIED",
        "category": "Mutual Aid - General"
      }
    },
    {
      "type": "Feature",
      "geometry": {
        "type": "Point",
        "coordinates": [
          -87.72554790167617,
          41.955180652525925
        ]
      },
      "properties": {
        "group_id": "irving-park-mutual-aid",
        "name": "Irving Park Mutual Aid",
        "location_name": "Neighbourhood Centroid",
        "address": "Irving Park",
        "verification_status": "VERIFIED",
        "category": "Mutual Aid - General"
      }
    },
    {
      "type": "Feature",
      "geometry": {
        "type": "Point",
        "coordinates": [
          -87.75455464278105,
          41.96669110686511
        ]
      },
      "properties": {
        "group_id": "mayfair-mutual-aid",
        "name": "Mayfair Mutual Aid",
        "location_name": "Neighbourhood Centroid",
        "address": "Mayfair",
        "verification_status": "VERIFIED",
        "category": "Mutual Aid - General"
      }
    },
    {
      "type": "Feature",
      "geometry": {
        "type": "Point",
        "coordinates": [
          -87.66148383646427,
          41.99906145687871
        ]
      },
      "properties": {
        "group_id": "po-box-collective",
        "name": "PO Box Collective",
        "location_name": "Neighbourhood Centroid",
        "address": "Rogers Park",
        "verification_status": "VERIFIED",
        "category": "Social Justice"
      }
    },
    {
      "type": "Feature",
      "geometry": {
        "type": "Point",
        "coordinates": [
          -87.61978896180764,
          41.75859745500741
        ]
      },
      "properties": {
        "group_id": "southside-together",
        "name": "Southside Together",
        "location_name": "Neighbourhood Centroid",
        "address": "South Side",
        "verification_status": "VERIFIED",
        "category": "Social Justice"
      }
    },
    {
      "type": "Feature",
      "geometry": {
        "type": "Point",
        "coordinates": [
          -87.73816438003695,
          41.883354400268786
        ]
      },
      "properties": {
        "group_id": "southwest-collective",
        "name": "Southwest Collective",
        "location_name": "Neighbourhood Centroid",
        "address": "Southwest Side",
        "verification_status": "VERIFIED",
        "category": "Community Advocacy"
      }
    },
    {
      "type": "Feature",
      "geometry": {
        "type": "Point",
        "coordinates": [
          -87.62143761482551,
          41.75873432941667
        ]
      },
      "properties": {
        "group_id": "brave-space-alliance",
        "name": "Brave Space Alliance",
        "location_name": "Neighbourhood Centroid",
        "address": "South Side",
        "verification_status": "VERIFIED",
        "category": "Healthcare & Wellness"
      }
    },
    {
      "type": "Feature",
      "geometry": {
        "type": "Point",
        "coordinates": [
          -87.62237432827646,
          41.761329548586296
        ]
      },
      "properties": {
        "group_id": "chicago-united-solidarity-project-cusp",
        "name": "Chicago United Solidarity Project (CUSP)",
        "location_name": "Neighbourhood Centroid",
        "address": "South Side",
        "verification_status": "VERIFIED",
        "category": "Mutual Aid - General"
      }
    },
    {
      "type": "Feature",
      "geometry": {
        "type": "Point",
        "coordinates": [
          -87.66011244726488,
          41.9731399329599
        ]
      },
      "properties": {
        "group_id": "chinese-mutual-aid-association-cmaa",
        "name": "Chinese Mutual Aid Association (CMAA)",
        "location_name": "Neighbourhood Centroid",
        "address": "Uptown/Argyle",
        "verification_status": "VERIFIED",
        "category": "Migrant & Immigrant Support"
      }
    },
    {
      "type": "Feature",
      "geometry": {
        "type": "Point",
        "coordinates": [
          -87.61762637289137,
          41.75889896142632
        ]
      },
      "properties": {
        "group_id": "market-box-chicago",
        "name": "Market Box Chicago",
        "location_name": "Neighbourhood Centroid",
        "address": "South Side",
        "verification_status": "VERIFIED",
        "category": "Food Security"
      }
    },
    {
      "type": "Feature",
      "geometry": {
        "type": "Point",
        "coordinates": [
          -87.64729001231159,
          41.943070320697856
        ]
      },
      "properties": {
        "group_id": "lakeview-lincoln-park-mutual-aid",
        "name": "Lakeview/Lincoln Park Mutual Aid",
        "location_name": "Neighbourhood Centroid",
        "address": "Lakeview",
        "verification_status": "VERIFIED",
        "category": "Mutual Aid - General"
      }
    },
    {
      "type": "Feature",
      "geometry": {
        "type": "Point",
        "coordinates": [
          -87.74073358793407,
          41.88306082871823
        ]
      },
      "properties": {
        "group_id": "northwest-side-solidarity-network",
        "name": "Northwest Side Solidarity Network",
        "location_name": "Neighbourhood Centroid",
        "address": "Northwest Side",
        "verification_status": "VERIFIED",
        "category": "Mutual Aid - General"
      }
    },
    {
      "type": "Feature",
      "geometry": {
        "type": "Point",
        "coordinates": [
          -87.66348911727286,
          41.99863010512399
        ]
      },
      "properties": {
        "group_id": "one-northside",
        "name": "ONE Northside",
        "location_name": "Neighbourhood Centroid",
        "address": "Rogers Park",
        "verification_status": "VERIFIED",
        "category": "Community Advocacy"
      }
    },
    {
      "type": "Feature",
      "geometry": {
        "type": "Point",
        "coordinates": [
          -87.71665599207641,
          41.88000192313478
        ]
      },
      "properties": {
        "group_id": "garfield-park-community-council",
        "name": "Garfield Park Community Council",
        "location_name": "Neighbourhood Centroid",
        "address": "Garfield Park",
        "verification_status": "VERIFIED",
        "category": "Food Security / Community Development"
      }
    },
    {
      "type": "Feature",
      "geometry": {
        "type": "Point",
        "coordinates": [
          -87.74084551503803,
          41.88064097668326
        ]
      },
      "properties": {
        "group_id": "john-walt-foundation",
        "name": "John Walt Foundation",
        "location_name": "Neighbourhood Centroid",
        "address": "West Side",
        "verification_status": "VERIFIED",
        "category": "Food Security"
      }
    },
    {
      "type": "Feature",
      "geometry": {
        "type": "Point",
        "coordinates": [
          -87.65051065165552,
          41.943980931510325
        ]
      },
      "properties": {
        "group_id": "center-on-halsted",
        "name": "Center on Halsted",
        "location_name": "Neighbourhood Centroid",
        "address": "Lakeview",
        "verification_status": "VERIFIED",
        "category": "LGBTQ+ Support"
      }
    },
    {
      "type": "Feature",
      "geometry": {
        "type": "Point",
        "coordinates": [
          -87.74248656199913,
          41.88106805676914
        ]
      },
      "properties": {
        "group_id": "chicago-environmental-justice-network-cejn",
        "name": "Chicago Environmental Justice Network (CEJN)",
        "location_name": "Neighbourhood Centroid",
        "address": "South and West Sides",
        "verification_status": "VERIFIED",
        "category": "Environmental Justice"
      }
    },
    {
      "type": "Feature",
      "geometry": {
        "type": "Point",
        "coordinates": [
          -87.74173355337014,
          41.88031600779779
        ]
      },
      "properties": {
        "group_id": "sarah-s-inn",
        "name": "Sarah's Inn",
        "location_name": "Neighbourhood Centroid",
        "address": "West Side",
        "verification_status": "VERIFIED",
        "category": "Domestic Violence Support"
      }
    },
    {
      "type": "Feature",
      "geometry": {
        "type": "Point",
        "coordinates": [
          -87.76477315437276,
          41.90009658242891
        ]
      },
      "properties": {
        "group_id": "westside-community-development-collaboration",
        "name": "Westside Community Development Collaboration",
        "location_name": "Neighbourhood Centroid",
        "address": "Austin",
        "verification_status": "VERIFIED",
        "category": "Community Development"
      }
    },
    {
      "type": "Feature",
      "geometry": {
        "type": "Point",
        "coordinates": [
          -87.5937940356483,
          41.79784497859363
        ]
      },
      "properties": {
        "group_id": "uchrp-u-of-chicago-harm-reduction-project",
        "name": "UCHRP (U of Chicago Harm Reduction Project)",
        "location_name": "Neighbourhood Centroid",
        "address": "Hyde Park / South Side",
        "verification_status": "VERIFIED",
        "category": "Harm Reduction"
      }
    },
    {
      "type": "Feature",
      "geometry": {
        "type": "Point",
        "coordinates": [
          -87.65837247565368,
          41.97318585280368
        ]
      },
      "properties": {
        "group_id": "american-indian-center-chicago",
        "name": "American Indian Center Chicago",
        "location_name": "Neighbourhood Centroid",
        "address": "Uptown / Citywide",
        "verification_status": "VERIFIED",
        "category": "Indigenous Solidarity"
      }
    },
    {
      "type": "Feature",
      "geometry": {
        "type": "Point",
        "coordinates": [
          -87.59394069164101,
          41.79630248654752
        ]
      },
      "properties": {
        "group_id": "hyde-park-art-center",
        "name": "Hyde Park Art Center",
        "location_name": "Neighbourhood Centroid",
        "address": "Hyde Park",
        "verification_status": "VERIFIED",
        "category": "Arts & Culture"
      }
    },
    {
      "type": "Feature",
      "geometry": {
        "type": "Point",
        "coordinates": [
          -87.6197632071034,
          41.69349149743313
        ]
      },
      "properties": {
        "group_id": "roseland-ceasefire",
        "name": "Roseland Ceasefire",
        "location_name": "Neighbourhood Centroid",
        "address": "Roseland",
        "verification_status": "VERIFIED",
        "category": "Community Advocacy"
      }
    },
    {
      "type": "Feature",
      "geometry": {
        "type": "Point",
        "coordinates": [
          -87.62049350039449,
          41.691051748184556
        ]
      },
      "properties": {
        "group_id": "sheldon-heights-coc-food-pantry",
        "name": "Sheldon Heights CoC Food Pantry",
        "location_name": "Neighbourhood Centroid",
        "address": "Roseland",
        "verification_status": "VERIFIED",
        "category": "Food Security"
      }
    },
    {
      "type": "Feature",
      "geometry": {
        "type": "Point",
        "coordinates": [
          -87.66432928329958,
          41.751458510715686
        ]
      },
      "properties": {
        "group_id": "st-sabina-church-food-pantry",
        "name": "St. Sabina Church Food Pantry",
        "location_name": "Neighbourhood Centroid",
        "address": "Auburn Gresham",
        "verification_status": "VERIFIED",
        "category": "Food Security"
      }
    },
    {
      "type": "Feature",
      "geometry": {
        "type": "Point",
        "coordinates": [
          -87.68903850336966,
          42.04504282443191
        ]
      },
      "properties": {
        "group_id": "evanston-community-cares",
        "name": "Evanston Community Cares",
        "location_name": "Neighbourhood Centroid",
        "address": "Evanston",
        "verification_status": "VERIFIED",
        "category": "Mutual Aid - General"
      }
    },
    {
      "type": "Feature",
      "geometry": {
        "type": "Point",
        "coordinates": [
          -87.6866250389484,
          42.04318474587754
        ]
      },
      "properties": {
        "group_id": "evanston-skokie-mutual-aid-network",
        "name": "Evanston/Skokie Mutual Aid Network",
        "location_name": "Neighbourhood Centroid",
        "address": "Evanston",
        "verification_status": "VERIFIED",
        "category": "Mutual Aid - General"
      }
    },
    {
      "type": "Feature",
      "geometry": {
        "type": "Point",
        "coordinates": [
          -87.6225788775009,
          41.69396353748893
        ]
      },
      "properties": {
        "group_id": "greater-roseland-west-pullman-food-network",
        "name": "Greater Roseland West Pullman Food Network",
        "location_name": "Neighbourhood Centroid",
        "address": "Roseland",
        "verification_status": "VERIFIED",
        "category": "Food Security"
      }
    },
    {
      "type": "Feature",
      "geometry": {
        "type": "Point",
        "coordinates": [
          -87.66247159483495,
          41.751191411510604
        ]
      },
      "properties": {
        "group_id": "target-area-development-corporation",
        "name": "Target Area Development Corporation",
        "location_name": "Neighbourhood Centroid",
        "address": "Auburn Gresham",
        "verification_status": "VERIFIED",
        "category": "Food Security"
      }
    },
    {
      "type": "Feature",
      "geometry": {
        "type": "Point",
        "coordinates": [
          -87.66072667274527,
          41.75122123175926
        ]
      },
      "properties": {
        "group_id": "greater-auburn-gresham-development-corporation-gagdc",
        "name": "Greater Auburn Gresham Development Corporation (GAGDC)",
        "location_name": "Neighbourhood Centroid",
        "address": "Auburn Gresham",
        "verification_status": "VERIFIED",
        "category": "Community Development"
      }
    },
    {
      "type": "Feature",
      "geometry": {
        "type": "Point",
        "coordinates": [
          -87.62397956618233,
          41.69209876254923
        ]
      },
      "properties": {
        "group_id": "youth-peace-center-of-roseland",
        "name": "Youth Peace Center of Roseland",
        "location_name": "Neighbourhood Centroid",
        "address": "Roseland",
        "verification_status": "VERIFIED",
        "category": "Youth & Education"
      }
    },
    {
      "type": "Feature",
      "geometry": {
        "type": "Point",
        "coordinates": [
          -87.62320402271023,
          41.692287390975906
        ]
      },
      "properties": {
        "group_id": "peaceplayers-chicago",
        "name": "PeacePlayers Chicago",
        "location_name": "Neighbourhood Centroid",
        "address": "Roseland",
        "verification_status": "VERIFIED",
        "category": "Youth & Education"
      }
    },
    {
      "type": "Feature",
      "geometry": {
        "type": "Point",
        "coordinates": [
          -87.59404102894217,
          41.77280339346332
        ]
      },
      "properties": {
        "group_id": "southside-nature-play",
        "name": "Southside Nature Play",
        "location_name": "Neighbourhood Centroid",
        "address": "Woodlawn",
        "verification_status": "LIKELY_ACTIVE",
        "category": "Environmental & Green Space"
      }
    },
    {
      "type": "Feature",
      "geometry": {
        "type": "Point",
        "coordinates": [
          -87.65858633148389,
          41.98935675223408
        ]
      },
      "properties": {
        "group_id": "edgewater-mutual-aid-group",
        "name": "Edgewater Mutual Aid Group",
        "location_name": "Neighbourhood Centroid",
        "address": "Edgewater",
        "verification_status": "LIKELY_ACTIVE",
        "category": "General Mutual Aid / Food & Essentials"
      }
    },
    {
      "type": "Feature",
      "geometry": {
        "type": "Point",
        "coordinates": [
          -87.70769229900026,
          41.92227358211714
        ]
      },
      "properties": {
        "group_id": "el-rbol",
        "name": "El \u00c1rbol",
        "location_name": "Neighbourhood Centroid",
        "address": "Logan Square",
        "verification_status": "LIKELY_ACTIVE",
        "category": "Migrant Support / Free Store"
      }
    },
    {
      "type": "Feature",
      "geometry": {
        "type": "Point",
        "coordinates": [
          -87.66304922011534,
          41.85424800132128
        ]
      },
      "properties": {
        "group_id": "femme-defensa",
        "name": "Femme Defensa",
        "location_name": "Neighbourhood Centroid",
        "address": "Pilsen / Little Village",
        "verification_status": "VERIFIED",
        "category": "Gender-Based Violence / Food & Housing"
      }
    },
    {
      "type": "Feature",
      "geometry": {
        "type": "Point",
        "coordinates": [
          -87.66335381085328,
          41.9969334497772
        ]
      },
      "properties": {
        "group_id": "food-not-bombs-chicago-rogers-park",
        "name": "Food Not Bombs Chicago \u2013 Rogers Park",
        "location_name": "Neighbourhood Centroid",
        "address": "Rogers Park",
        "verification_status": "VERIFIED",
        "category": "Food Recovery / Distribution"
      }
    },
    {
      "type": "Feature",
      "geometry": {
        "type": "Point",
        "coordinates": [
          -87.64759310894175,
          41.77426640735297
        ]
      },
      "properties": {
        "group_id": "getting-grown-collective-food-farm-familias",
        "name": "Getting Grown Collective \u2013 Food, Farm, Familias",
        "location_name": "Neighbourhood Centroid",
        "address": "Little Village / Englewood / South Chicago",
        "verification_status": "VERIFIED",
        "category": "Food Justice / Urban Agriculture"
      }
    },
    {
      "type": "Feature",
      "geometry": {
        "type": "Point",
        "coordinates": [
          -87.7227787067295,
          41.90006948339118
        ]
      },
      "properties": {
        "group_id": "humboldt-park-solidarity-network",
        "name": "Humboldt Park Solidarity Network",
        "location_name": "Neighbourhood Centroid",
        "address": "Humboldt Park",
        "verification_status": "LIKELY_ACTIVE",
        "category": "General Mutual Aid / Food & Essentials"
      }
    },
    {
      "type": "Feature",
      "geometry": {
        "type": "Point",
        "coordinates": [
          -87.65112053262635,
          41.94196681822553
        ]
      },
      "properties": {
        "group_id": "lakeview-lincoln-park-mutual-aid-network",
        "name": "Lakeview / Lincoln Park Mutual Aid Network",
        "location_name": "Neighbourhood Centroid",
        "address": "Lakeview / Lincoln Park",
        "verification_status": "UNCERTAIN",
        "category": "General Mutual Aid / Food & Essentials"
      }
    },
    {
      "type": "Feature",
      "geometry": {
        "type": "Point",
        "coordinates": [
          -87.73907044402772,
          41.8805500832125
        ]
      },
      "properties": {
        "group_id": "lil-miracles-mutual-aid-360-nation",
        "name": "Lil' Miracles Mutual Aid (360 Nation)",
        "location_name": "Neighbourhood Centroid",
        "address": "West Side",
        "verification_status": "LIKELY_ACTIVE",
        "category": "General Mutual Aid / Youth & Family"
      }
    },
    {
      "type": "Feature",
      "geometry": {
        "type": "Point",
        "coordinates": [
          -87.7204733659732,
          41.90164478782588
        ]
      },
      "properties": {
        "group_id": "lolitas-bodega",
        "name": "Lolitas Bodega",
        "location_name": "Neighbourhood Centroid",
        "address": "Humboldt Park",
        "verification_status": "VERIFIED",
        "category": "Food & Essentials / Community Care"
      }
    },
    {
      "type": "Feature",
      "geometry": {
        "type": "Point",
        "coordinates": [
          -87.59197599852095,
          41.77437121525368
        ]
      },
      "properties": {
        "group_id": "market-box",
        "name": "Market Box",
        "location_name": "Neighbourhood Centroid",
        "address": "Woodlawn / South Side",
        "verification_status": "VERIFIED",
        "category": "Food Justice / Farm Share Distribution"
      }
    },
    {
      "type": "Feature",
      "geometry": {
        "type": "Point",
        "coordinates": [
          -87.66165497571001,
          41.853350326200534
        ]
      },
      "properties": {
        "group_id": "pilsen-social-health-initiative",
        "name": "Pilsen Social Health Initiative",
        "location_name": "Neighbourhood Centroid",
        "address": "Pilsen",
        "verification_status": "VERIFIED",
        "category": "General Mutual Aid / Food & Health"
      }
    },
    {
      "type": "Feature",
      "geometry": {
        "type": "Point",
        "coordinates": [
          -87.72791213276093,
          41.96675432835397
        ]
      },
      "properties": {
        "group_id": "pueblo-unido-albany-park",
        "name": "Pueblo Unido Albany Park",
        "location_name": "Neighbourhood Centroid",
        "address": "Albany Park",
        "verification_status": "LIKELY_ACTIVE",
        "category": "Immigrant Support / General Mutual Aid"
      }
    },
    {
      "type": "Feature",
      "geometry": {
        "type": "Point",
        "coordinates": [
          -87.64751641767681,
          41.77225400102903
        ]
      },
      "properties": {
        "group_id": "resident-association-of-greater-englewood-r-a-g-e",
        "name": "Resident Association of Greater Englewood (R.A.G.E.)",
        "location_name": "Neighbourhood Centroid",
        "address": "Englewood",
        "verification_status": "VERIFIED",
        "category": "Community Organizing / Mutual Aid"
      }
    },
    {
      "type": "Feature",
      "geometry": {
        "type": "Point",
        "coordinates": [
          -87.66148279498444,
          41.99968535665685
        ]
      },
      "properties": {
        "group_id": "rogers-park-free-store",
        "name": "Rogers Park Free Store",
        "location_name": "Neighbourhood Centroid",
        "address": "Rogers Park",
        "verification_status": "VERIFIED",
        "category": "Free Store / Basic Needs"
      }
    },
    {
      "type": "Feature",
      "geometry": {
        "type": "Point",
        "coordinates": [
          -87.62188389417994,
          41.75823807721109
        ]
      },
      "properties": {
        "group_id": "adler-planetarium",
        "name": "Adler Planetarium",
        "location_name": "Neighbourhood Centroid",
        "address": "Near South Side (Museum Campus)",
        "verification_status": "VERIFIED",
        "category": "Museum"
      }
    },
    {
      "type": "Feature",
      "geometry": {
        "type": "Point",
        "coordinates": [
          -87.62166702098233,
          41.75993661739193
        ]
      },
      "properties": {
        "group_id": "field-museum",
        "name": "Field Museum",
        "location_name": "Neighbourhood Centroid",
        "address": "Near South Side (Museum Campus)",
        "verification_status": "VERIFIED",
        "category": "Museum"
      }
    },
    {
      "type": "Feature",
      "geometry": {
        "type": "Point",
        "coordinates": [
          -87.65895683722138,
          41.97036624752034
        ]
      },
      "properties": {
        "group_id": "museum-of-contemporary-art-mca-chicago",
        "name": "Museum of Contemporary Art (MCA) Chicago",
        "location_name": "Neighbourhood Centroid",
        "address": "Near North Side / Streeterville",
        "verification_status": "VERIFIED",
        "category": "Museum"
      }
    },
    {
      "type": "Feature",
      "geometry": {
        "type": "Point",
        "coordinates": [
          -87.61953669944971,
          41.76122589730302
        ]
      },
      "properties": {
        "group_id": "shedd-aquarium",
        "name": "Shedd Aquarium",
        "location_name": "Neighbourhood Centroid",
        "address": "Near South Side (Museum Campus)",
        "verification_status": "VERIFIED",
        "category": "Museum / Aquarium"
      }
    },
    {
      "type": "Feature",
      "geometry": {
        "type": "Point",
        "coordinates": [
          -87.64813015839866,
          41.944000311933515
        ]
      },
      "properties": {
        "group_id": "stage-773",
        "name": "Stage 773",
        "location_name": "Neighbourhood Centroid",
        "address": "Lakeview",
        "verification_status": "INACTIVE",
        "category": "Theater"
      }
    },
    {
      "type": "Feature",
      "geometry": {
        "type": "Point",
        "coordinates": [
          -87.66529668857599,
          41.99972409408485
        ]
      },
      "properties": {
        "group_id": "american-indian-association-of-illinois-aiai",
        "name": "American Indian Association of Illinois (AIAI)",
        "location_name": "Neighbourhood Centroid",
        "address": "Rogers Park",
        "verification_status": "VERIFIED",
        "category": "Education & Youth Services"
      }
    },
    {
      "type": "Feature",
      "geometry": {
        "type": "Point",
        "coordinates": [
          -87.72848089414732,
          41.967277205550666
        ]
      },
      "properties": {
        "group_id": "american-indian-center-of-chicago-aic",
        "name": "American Indian Center of Chicago (AIC)",
        "location_name": "Neighbourhood Centroid",
        "address": "Albany Park",
        "verification_status": "VERIFIED",
        "category": "Cultural Center & Community Hub"
      }
    },
    {
      "type": "Feature",
      "geometry": {
        "type": "Point",
        "coordinates": [
          -87.72497133665009,
          41.96620505905064
        ]
      },
      "properties": {
        "group_id": "american-indian-health-service-of-chicago-aihsc",
        "name": "American Indian Health Service of Chicago (AIHSC)",
        "location_name": "Neighbourhood Centroid",
        "address": "Albany Park",
        "verification_status": "VERIFIED",
        "category": "Indigenous Healthcare & Behavioral Health"
      }
    },
    {
      "type": "Feature",
      "geometry": {
        "type": "Point",
        "coordinates": [
          -87.72639541239543,
          41.96816473184061
        ]
      },
      "properties": {
        "group_id": "chi-nations-youth-council-cnyc",
        "name": "Chi-Nations Youth Council (CNYC)",
        "location_name": "Neighbourhood Centroid",
        "address": "Albany Park / Citywide",
        "verification_status": "VERIFIED",
        "category": "Youth Activism & Cultural Preservation"
      }
    },
    {
      "type": "Feature",
      "geometry": {
        "type": "Point",
        "coordinates": [
          -87.72725457837095,
          41.96983865492372
        ]
      },
      "properties": {
        "group_id": "first-nations-garden",
        "name": "First Nations Garden",
        "location_name": "Neighbourhood Centroid",
        "address": "Albany Park",
        "verification_status": "VERIFIED",
        "category": "Land Stewardship & Environmental Justice"
      }
    },
    {
      "type": "Feature",
      "geometry": {
        "type": "Point",
        "coordinates": [
          -87.69013507025025,
          42.04355009403667
        ]
      },
      "properties": {
        "group_id": "gichigamiin-indigenous-nations-museum",
        "name": "Gichigamiin Indigenous Nations Museum",
        "location_name": "Neighbourhood Centroid",
        "address": "Evanston (Chicago Metro)",
        "verification_status": "VERIFIED",
        "category": "Museum & Cultural Education"
      }
    },
    {
      "type": "Feature",
      "geometry": {
        "type": "Point",
        "coordinates": [
          -87.65852432250881,
          41.97153268223453
        ]
      },
      "properties": {
        "group_id": "indigenous-chicago",
        "name": "Indigenous Chicago",
        "location_name": "Neighbourhood Centroid",
        "address": "Near North Side (c/o Newberry Library)",
        "verification_status": "LIKELY_ACTIVE",
        "category": "Public Education & Community Mapping"
      }
    },
    {
      "type": "Feature",
      "geometry": {
        "type": "Point",
        "coordinates": [
          -87.66160488108909,
          41.97224626658511
        ]
      },
      "properties": {
        "group_id": "newberry-library-d-arcy-mcnickle-center",
        "name": "Newberry Library \u2014 D'Arcy McNickle Center",
        "location_name": "Neighbourhood Centroid",
        "address": "Near North Side (Gold Coast)",
        "verification_status": "VERIFIED",
        "category": "Research & Cultural Archives"
      }
    },
    {
      "type": "Feature",
      "geometry": {
        "type": "Point",
        "coordinates": [
          -87.65142220626198,
          41.94317861343615
        ]
      },
      "properties": {
        "group_id": "saint-kateri-center-of-chicago",
        "name": "Saint Kateri Center of Chicago",
        "location_name": "Neighbourhood Centroid",
        "address": "Lakeview / North Center",
        "verification_status": "LIKELY_ACTIVE",
        "category": "Spiritual Community & Cultural Preservation"
      }
    },
    {
      "type": "Feature",
      "geometry": {
        "type": "Point",
        "coordinates": [
          -87.73818400629071,
          41.88321565779304
        ]
      },
      "properties": {
        "group_id": "big-brothers-big-sisters-of-metropolitan-chicago",
        "name": "Big Brothers Big Sisters of Metropolitan Chicago",
        "location_name": "Neighbourhood Centroid",
        "address": "Near West Side (citywide programs)",
        "verification_status": "VERIFIED",
        "category": "Youth Mentoring"
      }
    },
    {
      "type": "Feature",
      "geometry": {
        "type": "Point",
        "coordinates": [
          -87.64961223317657,
          41.8307400599154
        ]
      },
      "properties": {
        "group_id": "chicago-arts-partnerships-in-education-cape",
        "name": "Chicago Arts Partnerships in Education (CAPE)",
        "location_name": "Neighbourhood Centroid",
        "address": "Bridgeport / Near South Side",
        "verification_status": "VERIFIED",
        "category": "Arts-Integrated Education"
      }
    },
    {
      "type": "Feature",
      "geometry": {
        "type": "Point",
        "coordinates": [
          -87.64732125707687,
          41.77411531150572
        ]
      },
      "properties": {
        "group_id": "chicago-hopes-for-kids",
        "name": "Chicago HOPES for Kids",
        "location_name": "Neighbourhood Centroid",
        "address": "Englewood / South Side",
        "verification_status": "VERIFIED",
        "category": "Youth Education & Tutoring / Homeless Youth"
      }
    },
    {
      "type": "Feature",
      "geometry": {
        "type": "Point",
        "coordinates": [
          -87.66145273041833,
          41.968029283160206
        ]
      },
      "properties": {
        "group_id": "chicago-lights-tutoring",
        "name": "Chicago Lights Tutoring",
        "location_name": "Neighbourhood Centroid",
        "address": "Gold Coast / Near North Side",
        "verification_status": "VERIFIED",
        "category": "Youth Tutoring & Mentorship"
      }
    },
    {
      "type": "Feature",
      "geometry": {
        "type": "Point",
        "coordinates": [
          -87.59212450489098,
          41.77712999841283
        ]
      },
      "properties": {
        "group_id": "project-exploration",
        "name": "Project Exploration",
        "location_name": "Neighbourhood Centroid",
        "address": "Woodlawn / South Side",
        "verification_status": "VERIFIED",
        "category": "STEM Science Education / Youth Development"
      }
    },
    {
      "type": "Feature",
      "geometry": {
        "type": "Point",
        "coordinates": [
          -87.65206203840201,
          41.83243420142365
        ]
      },
      "properties": {
        "group_id": "project-vision",
        "name": "Project: VISION",
        "location_name": "Neighbourhood Centroid",
        "address": "Chinatown / Bridgeport",
        "verification_status": "VERIFIED",
        "category": "Youth Education & Leadership / API Community"
      }
    },
    {
      "type": "Feature",
      "geometry": {
        "type": "Point",
        "coordinates": [
          -87.64728798872633,
          41.945783687373705
        ]
      },
      "properties": {
        "group_id": "sitstayread",
        "name": "SitStayRead",
        "location_name": "Neighbourhood Centroid",
        "address": "Lakeview (HQ; programs citywide)",
        "verification_status": "VERIFIED",
        "category": "Canine-Assisted Youth Literacy"
      }
    },
    {
      "type": "Feature",
      "geometry": {
        "type": "Point",
        "coordinates": [
          -87.71783842933921,
          41.88233489679551
        ]
      },
      "properties": {
        "group_id": "garfield-park-conservatory-alliance",
        "name": "Garfield Park Conservatory Alliance",
        "location_name": "Neighbourhood Centroid",
        "address": "East Garfield Park",
        "verification_status": "VERIFIED",
        "category": "Botanical Garden/Education"
      }
    },
    {
      "type": "Feature",
      "geometry": {
        "type": "Point",
        "coordinates": [
          -87.59204897877876,
          41.77241964246909
        ]
      },
      "properties": {
        "group_id": "phoenix-sustainability-initiative",
        "name": "Phoenix Sustainability Initiative",
        "location_name": "Neighbourhood Centroid",
        "address": "Hyde Park / Woodlawn",
        "verification_status": "VERIFIED",
        "category": "Community Garden & Environmental Education"
      }
    },
    {
      "type": "Feature",
      "geometry": {
        "type": "Point",
        "coordinates": [
          -87.65908657659784,
          41.990466190858506
        ]
      },
      "properties": {
        "group_id": "peterson-garden-project",
        "name": "Peterson Garden Project",
        "location_name": "Neighbourhood Centroid",
        "address": "Edgewater / Citywide",
        "verification_status": "STALE",
        "category": "Community/Victory Gardens"
      }
    },
    {
      "type": "Feature",
      "geometry": {
        "type": "Point",
        "coordinates": [
          -87.64350043560478,
          41.774540904102004
        ]
      },
      "properties": {
        "group_id": "growing-home",
        "name": "Growing Home",
        "location_name": "Neighbourhood Centroid",
        "address": "Englewood",
        "verification_status": "VERIFIED",
        "category": "Urban Agriculture/Job Training"
      }
    },
    {
      "type": "Feature",
      "geometry": {
        "type": "Point",
        "coordinates": [
          -87.66315635863413,
          42.000742631223105
        ]
      },
      "properties": {
        "group_id": "cje-seniorlife",
        "name": "CJE SeniorLife",
        "location_name": "Neighbourhood Centroid",
        "address": "West Rogers Park",
        "verification_status": "VERIFIED",
        "category": "Senior Meal Delivery"
      }
    },
    {
      "type": "Feature",
      "geometry": {
        "type": "Point",
        "coordinates": [
          -87.66479452477988,
          41.99768308631998
        ]
      },
      "properties": {
        "group_id": "care-for-real",
        "name": "Care for Real",
        "location_name": "Neighbourhood Centroid",
        "address": "Rogers Park",
        "verification_status": "VERIFIED",
        "category": "Food Pantry"
      }
    },
    {
      "type": "Feature",
      "geometry": {
        "type": "Point",
        "coordinates": [
          -87.60470540741385,
          41.74833643358539
        ]
      },
      "properties": {
        "group_id": "chatham-avalon-ministries-inc",
        "name": "Chatham-Avalon Ministries Inc.",
        "location_name": "Neighbourhood Centroid",
        "address": "Chatham",
        "verification_status": "LIKELY_ACTIVE",
        "category": "Food Pantry"
      }
    },
    {
      "type": "Feature",
      "geometry": {
        "type": "Point",
        "coordinates": [
          -87.66373324077996,
          41.99885681576725
        ]
      },
      "properties": {
        "group_id": "ezra-multi-service-center",
        "name": "EZRA Multi-Service Center",
        "location_name": "Neighbourhood Centroid",
        "address": "West Rogers Park",
        "verification_status": "VERIFIED",
        "category": "Food Pantry / Social Services"
      }
    },
    {
      "type": "Feature",
      "geometry": {
        "type": "Point",
        "coordinates": [
          -87.72928244072648,
          41.96750073102562
        ]
      },
      "properties": {
        "group_id": "friendship-center-chicago",
        "name": "Friendship Center Chicago",
        "location_name": "Neighbourhood Centroid",
        "address": "Albany Park / Northwest Side",
        "verification_status": "VERIFIED",
        "category": "Food Pantry / Soup Kitchen"
      }
    },
    {
      "type": "Feature",
      "geometry": {
        "type": "Point",
        "coordinates": [
          -87.65054505134641,
          41.942039377343896
        ]
      },
      "properties": {
        "group_id": "lakeview-pantry-nourishing-hope",
        "name": "Lakeview Pantry / Nourishing Hope",
        "location_name": "Neighbourhood Centroid",
        "address": "Lakeview / Uptown",
        "verification_status": "VERIFIED",
        "category": "Food Pantry / Social Services"
      }
    },
    {
      "type": "Feature",
      "geometry": {
        "type": "Point",
        "coordinates": [
          -87.7388852655667,
          41.88084139295637
        ]
      },
      "properties": {
        "group_id": "marillac-house-food-pantry",
        "name": "Marillac House Food Pantry",
        "location_name": "Neighbourhood Centroid",
        "address": "Near West Side",
        "verification_status": "VERIFIED",
        "category": "Food Pantry"
      }
    },
    {
      "type": "Feature",
      "geometry": {
        "type": "Point",
        "coordinates": [
          -87.66352687348363,
          41.85496355928338
        ]
      },
      "properties": {
        "group_id": "pilsen-food-pantry",
        "name": "Pilsen Food Pantry",
        "location_name": "Neighbourhood Centroid",
        "address": "Pilsen",
        "verification_status": "VERIFIED",
        "category": "Food Pantry"
      }
    },
    {
      "type": "Feature",
      "geometry": {
        "type": "Point",
        "coordinates": [
          -87.66036937769994,
          41.856158741390985
        ]
      },
      "properties": {
        "group_id": "providence-soup-kitchen-daughters-of-st-mary-of-providence",
        "name": "Providence Soup Kitchen (Daughters of St. Mary of Providence)",
        "location_name": "Neighbourhood Centroid",
        "address": "Pilsen",
        "verification_status": "LIKELY_ACTIVE",
        "category": "Soup Kitchen"
      }
    },
    {
      "type": "Feature",
      "geometry": {
        "type": "Point",
        "coordinates": [
          -87.65844537899875,
          41.96766441365256
        ]
      },
      "properties": {
        "group_id": "ronald-mcdonald-house-charities-of-chicagoland-nw-indiana",
        "name": "Ronald McDonald House Charities of Chicagoland & NW Indiana",
        "location_name": "Neighbourhood Centroid",
        "address": "Streeterville / Near North Side",
        "verification_status": "VERIFIED",
        "category": "Meal Preparation"
      }
    },
    {
      "type": "Feature",
      "geometry": {
        "type": "Point",
        "coordinates": [
          -87.618400253249,
          41.759005085814344
        ]
      },
      "properties": {
        "group_id": "st-cyprian-food-pantry",
        "name": "St. Cyprian Food Pantry",
        "location_name": "Neighbourhood Centroid",
        "address": "South Side",
        "verification_status": "VERIFIED",
        "category": "Food Pantry"
      }
    },
    {
      "type": "Feature",
      "geometry": {
        "type": "Point",
        "coordinates": [
          -87.76593868089654,
          41.90075810389473
        ]
      },
      "properties": {
        "group_id": "the-boulevard-the-road-to-health-and-home",
        "name": "The Boulevard: The Road to Health and Home",
        "location_name": "Neighbourhood Centroid",
        "address": "Austin / West Side",
        "verification_status": "VERIFIED",
        "category": "Food / Social Services"
      }
    },
    {
      "type": "Feature",
      "geometry": {
        "type": "Point",
        "coordinates": [
          -87.62013460243985,
          41.760328054194105
        ]
      },
      "properties": {
        "group_id": "affinity-community-services",
        "name": "Affinity Community Services",
        "location_name": "Neighbourhood Centroid",
        "address": "Douglas/Near South Side",
        "verification_status": "VERIFIED",
        "category": "LGBTQ+ Social Justice"
      }
    },
    {
      "type": "Feature",
      "geometry": {
        "type": "Point",
        "coordinates": [
          -87.64921563135759,
          41.94519854596414
        ]
      },
      "properties": {
        "group_id": "broadway-youth-center-howard-brown-health",
        "name": "Broadway Youth Center (Howard Brown Health)",
        "location_name": "Neighbourhood Centroid",
        "address": "Lakeview",
        "verification_status": "VERIFIED",
        "category": "LGBTQ+ Youth Services"
      }
    },
    {
      "type": "Feature",
      "geometry": {
        "type": "Point",
        "coordinates": [
          -87.62140778033793,
          41.75922175804569
        ]
      },
      "properties": {
        "group_id": "chicago-house",
        "name": "Chicago House",
        "location_name": "Neighbourhood Centroid",
        "address": "Near South Side",
        "verification_status": "VERIFIED",
        "category": "HIV/AIDS Services / LGBTQ+ Housing"
      }
    },
    {
      "type": "Feature",
      "geometry": {
        "type": "Point",
        "coordinates": [
          -87.73856463770844,
          41.87979718760798
        ]
      },
      "properties": {
        "group_id": "covenant-house-illinois",
        "name": "Covenant House Illinois",
        "location_name": "Neighbourhood Centroid",
        "address": "West Side",
        "verification_status": "VERIFIED",
        "category": "LGBTQ+ Youth Services / Homeless Services"
      }
    },
    {
      "type": "Feature",
      "geometry": {
        "type": "Point",
        "coordinates": [
          -87.66149271292961,
          41.99799206737218
        ]
      },
      "properties": {
        "group_id": "circles-ciphers",
        "name": "Circles & Ciphers",
        "location_name": "Neighbourhood Centroid",
        "address": "Rogers Park",
        "verification_status": "VERIFIED",
        "category": "Restorative Justice / Youth Arts"
      }
    },
    {
      "type": "Feature",
      "geometry": {
        "type": "Point",
        "coordinates": [
          -87.66210690892562,
          41.96888711315776
        ]
      },
      "properties": {
        "group_id": "john-howard-association-of-illinois-jha",
        "name": "John Howard Association of Illinois (JHA)",
        "location_name": "Neighbourhood Centroid",
        "address": "Near North Side / Citywide",
        "verification_status": "VERIFIED",
        "category": "Prison Monitoring & Reform"
      }
    },
    {
      "type": "Feature",
      "geometry": {
        "type": "Point",
        "coordinates": [
          -87.61812956620506,
          41.757847401942044
        ]
      },
      "properties": {
        "group_id": "moms-united-against-violence-and-incarceration-muavi",
        "name": "Moms United Against Violence and Incarceration (MUAVI)",
        "location_name": "Neighbourhood Centroid",
        "address": "South Side / Citywide",
        "verification_status": "VERIFIED",
        "category": "Caregiver / Family Support"
      }
    },
    {
      "type": "Feature",
      "geometry": {
        "type": "Point",
        "coordinates": [
          -87.64761698272065,
          41.77294650014926
        ]
      },
      "properties": {
        "group_id": "precious-blood-ministry-of-reconciliation-pbmr",
        "name": "Precious Blood Ministry of Reconciliation (PBMR)",
        "location_name": "Neighbourhood Centroid",
        "address": "Back of the Yards / Englewood",
        "verification_status": "VERIFIED",
        "category": "Restorative Justice"
      }
    },
    {
      "type": "Feature",
      "geometry": {
        "type": "Point",
        "coordinates": [
          -87.65741210637815,
          41.972863540718784
        ]
      },
      "properties": {
        "group_id": "prison-neighborhood-arts-education-project-pnap",
        "name": "Prison + Neighborhood Arts/Education Project (PNAP)",
        "location_name": "Neighbourhood Centroid",
        "address": "Uptown",
        "verification_status": "VERIFIED",
        "category": "Books & Arts in Prison"
      }
    },
    {
      "type": "Feature",
      "geometry": {
        "type": "Point",
        "coordinates": [
          -87.73807555632554,
          41.87986466148348
        ]
      },
      "properties": {
        "group_id": "safer-foundation",
        "name": "Safer Foundation",
        "location_name": "Neighbourhood Centroid",
        "address": "Near West Side / Southwest Side",
        "verification_status": "VERIFIED",
        "category": "Reentry Support"
      }
    },
    {
      "type": "Feature",
      "geometry": {
        "type": "Point",
        "coordinates": [
          -87.6584949126284,
          41.97261245362103
        ]
      },
      "properties": {
        "group_id": "transformative-justice-law-project-of-illinois-tjlp",
        "name": "Transformative Justice Law Project of Illinois (TJLP)",
        "location_name": "Neighbourhood Centroid",
        "address": "Uptown",
        "verification_status": "VERIFIED",
        "category": "Legal Advocacy / Abolitionist"
      }
    },
    {
      "type": "Feature",
      "geometry": {
        "type": "Point",
        "coordinates": [
          -87.71681807044351,
          41.88144789980758
        ]
      },
      "properties": {
        "group_id": "transforming-reentry-services-mwipm",
        "name": "Transforming Reentry Services / MWIPM",
        "location_name": "Neighbourhood Centroid",
        "address": "Douglas / East Garfield Park",
        "verification_status": "VERIFIED",
        "category": "Reentry Support"
      }
    },
    {
      "type": "Feature",
      "geometry": {
        "type": "Point",
        "coordinates": [
          -87.72737618319796,
          41.97010041044235
        ]
      },
      "properties": {
        "group_id": "catholic-charities-of-chicago-immigrant-services",
        "name": "Catholic Charities of Chicago \u2014 Immigrant Services",
        "location_name": "Neighbourhood Centroid",
        "address": "Albany Park",
        "verification_status": "VERIFIED",
        "category": "Refugee Resettlement / Immigrant Services"
      }
    },
    {
      "type": "Feature",
      "geometry": {
        "type": "Point",
        "coordinates": [
          -87.66096951889223,
          41.99068060836505
        ]
      },
      "properties": {
        "group_id": "centro-romero",
        "name": "Centro Romero",
        "location_name": "Neighbourhood Centroid",
        "address": "Edgewater",
        "verification_status": "VERIFIED",
        "category": "Immigrant Community Services / Education"
      }
    },
    {
      "type": "Feature",
      "geometry": {
        "type": "Point",
        "coordinates": [
          -87.66045656736046,
          41.97543170925091
        ]
      },
      "properties": {
        "group_id": "ethiopian-community-association-of-chicago-ecac",
        "name": "Ethiopian Community Association of Chicago (ECAC)",
        "location_name": "Neighbourhood Centroid",
        "address": "Uptown",
        "verification_status": "VERIFIED",
        "category": "East African Immigrant Services"
      }
    },
    {
      "type": "Feature",
      "geometry": {
        "type": "Point",
        "coordinates": [
          -87.65849268630173,
          41.97012107870231
        ]
      },
      "properties": {
        "group_id": "mira-chicago-middle-eastern-immigrant-refugee-alliance",
        "name": "MIRA Chicago (Middle Eastern Immigrant & Refugee Alliance)",
        "location_name": "Neighbourhood Centroid",
        "address": "North Side / Lincolnwood",
        "verification_status": "VERIFIED",
        "category": "Middle Eastern Refugee & Immigrant Services"
      }
    },
    {
      "type": "Feature",
      "geometry": {
        "type": "Point",
        "coordinates": [
          -87.66197805770366,
          41.998070850041145
        ]
      },
      "properties": {
        "group_id": "refugeeone",
        "name": "RefugeeOne",
        "location_name": "Neighbourhood Centroid",
        "address": "West Rogers Park",
        "verification_status": "VERIFIED",
        "category": "Refugee Resettlement / Integration"
      }
    },
    {
      "type": "Feature",
      "geometry": {
        "type": "Point",
        "coordinates": [
          -87.66320537046758,
          41.852487646901075
        ]
      },
      "properties": {
        "group_id": "the-resurrection-project-trp-immigrant-justice",
        "name": "The Resurrection Project / TRP Immigrant Justice",
        "location_name": "Neighbourhood Centroid",
        "address": "Pilsen",
        "verification_status": "VERIFIED",
        "category": "Immigrant Legal Services / Community Organizing"
      }
    },
    {
      "type": "Feature",
      "geometry": {
        "type": "Point",
        "coordinates": [
          -87.7252445302497,
          41.96845321954025
        ]
      },
      "properties": {
        "group_id": "world-relief-chicagoland",
        "name": "World Relief Chicagoland",
        "location_name": "Neighbourhood Centroid",
        "address": "Albany Park",
        "verification_status": "VERIFIED",
        "category": "Refugee Resettlement / ESL / Employment"
      }
    },
    {
      "type": "Feature",
      "geometry": {
        "type": "Point",
        "coordinates": [
          -87.62096910733266,
          41.75835498731258
        ]
      },
      "properties": {
        "group_id": "young-center-for-immigrant-children-s-rights",
        "name": "Young Center for Immigrant Children's Rights",
        "location_name": "Neighbourhood Centroid",
        "address": "Near South Side",
        "verification_status": "VERIFIED",
        "category": "Unaccompanied Immigrant Children / Child Advocacy"
      }
    },
    {
      "type": "Feature",
      "geometry": {
        "type": "Point",
        "coordinates": [
          -87.64619050910039,
          41.77454498526155
        ]
      },
      "properties": {
        "group_id": "growing-home-inc",
        "name": "Growing Home Inc.",
        "location_name": "Neighbourhood Centroid",
        "address": "Englewood",
        "verification_status": "VERIFIED",
        "category": "Urban Agriculture / Workforce Development"
      }
    },
    {
      "type": "Feature",
      "geometry": {
        "type": "Point",
        "coordinates": [
          -87.71968594970623,
          41.88139732671238
        ]
      },
      "properties": {
        "group_id": "deborah-s-place",
        "name": "Deborah's Place",
        "location_name": "Neighbourhood Centroid",
        "address": "East Garfield Park / Citywide",
        "verification_status": "LIKELY_ACTIVE",
        "category": "Supportive Housing (Women)"
      }
    },
    {
      "type": "Feature",
      "geometry": {
        "type": "Point",
        "coordinates": [
          -87.65712896908981,
          41.97463307470745
        ]
      },
      "properties": {
        "group_id": "northside-housing-support-services-nshss",
        "name": "Northside Housing & Support Services (NSHSS)",
        "location_name": "Neighbourhood Centroid",
        "address": "Rogers Park / Uptown",
        "verification_status": "VERIFIED",
        "category": "Homeless Services / Emergency Shelter"
      }
    },
    {
      "type": "Feature",
      "geometry": {
        "type": "Point",
        "coordinates": [
          -87.66352375384382,
          41.85197128409474
        ]
      },
      "properties": {
        "group_id": "pilsen-alliance",
        "name": "Pilsen Alliance",
        "location_name": "Neighbourhood Centroid",
        "address": "Pilsen / Lower West Side",
        "verification_status": "VERIFIED",
        "category": "Community Organizing / Anti-Displacement"
      }
    },
    {
      "type": "Feature",
      "geometry": {
        "type": "Point",
        "coordinates": [
          -87.65700212289235,
          41.97556181406586
        ]
      },
      "properties": {
        "group_id": "sarah-s-circle",
        "name": "Sarah's Circle",
        "location_name": "Neighbourhood Centroid",
        "address": "Uptown",
        "verification_status": "VERIFIED",
        "category": "Homeless Services (Women)"
      }
    },
    {
      "type": "Feature",
      "geometry": {
        "type": "Point",
        "coordinates": [
          -87.59637760139849,
          41.79811005355308
        ]
      },
      "properties": {
        "group_id": "mandel-legal-aid-clinic-uchicago-law",
        "name": "Mandel Legal Aid Clinic (UChicago Law)",
        "location_name": "Neighbourhood Centroid",
        "address": "Hyde Park",
        "verification_status": "VERIFIED",
        "category": "Law School Legal Clinic"
      }
    },
    {
      "type": "Feature",
      "geometry": {
        "type": "Point",
        "coordinates": [
          -87.65675182914356,
          41.97171398519566
        ]
      },
      "properties": {
        "group_id": "uptown-people-s-law-center",
        "name": "Uptown People's Law Center",
        "location_name": "Neighbourhood Centroid",
        "address": "Uptown",
        "verification_status": "VERIFIED",
        "category": "Housing & Prisoner Rights Legal Aid"
      }
    },
    {
      "type": "Feature",
      "geometry": {
        "type": "Point",
        "coordinates": [
          -87.76631243091616,
          41.89965725503854
        ]
      },
      "properties": {
        "group_id": "austin-coming-together-act",
        "name": "Austin Coming Together (ACT)",
        "location_name": "Neighbourhood Centroid",
        "address": "Austin / West Side",
        "verification_status": "VERIFIED",
        "category": "Collective Impact / Neighborhood Advocacy"
      }
    },
    {
      "type": "Feature",
      "geometry": {
        "type": "Point",
        "coordinates": [
          -87.61929532066173,
          41.82347551404521
        ]
      },
      "properties": {
        "group_id": "bronzeville-community-development-partnership-bcdp",
        "name": "Bronzeville Community Development Partnership (BCDP)",
        "location_name": "Neighbourhood Centroid",
        "address": "Bronzeville",
        "verification_status": "VERIFIED",
        "category": "Community / Economic Development"
      }
    },
    {
      "type": "Feature",
      "geometry": {
        "type": "Point",
        "coordinates": [
          -87.76819334235829,
          41.897825082844555
        ]
      },
      "properties": {
        "group_id": "build-chicago-broader-urban-involvement-leadership-development",
        "name": "BUILD Chicago (Broader Urban Involvement & Leadership Development)",
        "location_name": "Neighbourhood Centroid",
        "address": "Austin / West Side",
        "verification_status": "VERIFIED",
        "category": "Youth Development / Community Advocacy"
      }
    },
    {
      "type": "Feature",
      "geometry": {
        "type": "Point",
        "coordinates": [
          -87.61967575101293,
          41.69355575779239
        ]
      },
      "properties": {
        "group_id": "developing-communities-project-dcp",
        "name": "Developing Communities Project (DCP)",
        "location_name": "Neighbourhood Centroid",
        "address": "Southeast Chicago (Roseland / Pullman)",
        "verification_status": "UNCERTAIN",
        "category": "Faith-Based / Community Organizing"
      }
    },
    {
      "type": "Feature",
      "geometry": {
        "type": "Point",
        "coordinates": [
          -87.62018190335968,
          41.75964081825268
        ]
      },
      "properties": {
        "group_id": "far-south-community-development-corporation-far-south-cdc",
        "name": "Far South Community Development Corporation (Far South CDC)",
        "location_name": "Neighbourhood Centroid",
        "address": "Far South Side (Roseland",
        "verification_status": "VERIFIED",
        "category": "Community / Economic Development"
      }
    },
    {
      "type": "Feature",
      "geometry": {
        "type": "Point",
        "coordinates": [
          -87.64677542793171,
          41.77123387201
        ]
      },
      "properties": {
        "group_id": "good-kids-mad-city-gkmc-englewood",
        "name": "Good Kids Mad City (GKMC) \u2013 Englewood",
        "location_name": "Neighbourhood Centroid",
        "address": "Englewood / West Englewood",
        "verification_status": "VERIFIED",
        "category": "Youth Advocacy / Peace Building"
      }
    },
    {
      "type": "Feature",
      "geometry": {
        "type": "Point",
        "coordinates": [
          -87.60699303147882,
          41.75067128498908
        ]
      },
      "properties": {
        "group_id": "greater-chatham-initiative-gci",
        "name": "Greater Chatham Initiative (GCI)",
        "location_name": "Neighbourhood Centroid",
        "address": "Chatham / Greater Grand Crossing / Avalon Park / Auburn Gresham",
        "verification_status": "VERIFIED",
        "category": "Community / Economic Development"
      }
    },
    {
      "type": "Feature",
      "geometry": {
        "type": "Point",
        "coordinates": [
          -87.70547656761725,
          41.922209401109974
        ]
      },
      "properties": {
        "group_id": "logan-square-neighborhood-association-palenque-lsna",
        "name": "Logan Square Neighborhood Association / Palenque LSNA",
        "location_name": "Neighbourhood Centroid",
        "address": "Logan Square / Avondale / Hermosa",
        "verification_status": "VERIFIED",
        "category": "Community Organizing / Education & Housing Advocacy"
      }
    },
    {
      "type": "Feature",
      "geometry": {
        "type": "Point",
        "coordinates": [
          -87.7400186602843,
          41.88155961465245
        ]
      },
      "properties": {
        "group_id": "north-lawndale-community-coordinating-council-nlccc",
        "name": "North Lawndale Community Coordinating Council (NLCCC)",
        "location_name": "Neighbourhood Centroid",
        "address": "North Lawndale / West Side",
        "verification_status": "VERIFIED",
        "category": "Community Planning / Neighborhood Advocacy"
      }
    },
    {
      "type": "Feature",
      "geometry": {
        "type": "Point",
        "coordinates": [
          -87.72795024469112,
          41.9553628696869
        ]
      },
      "properties": {
        "group_id": "northwest-side-housing-center-nwshc",
        "name": "Northwest Side Housing Center (NWSHC)",
        "location_name": "Neighbourhood Centroid",
        "address": "Northwest Side (Belmont Cragin / Portage Park / Irving Park)",
        "verification_status": "VERIFIED",
        "category": "Housing Advocacy / Community Organizing"
      }
    },
    {
      "type": "Feature",
      "geometry": {
        "type": "Point",
        "coordinates": [
          -87.64871545116559,
          41.9420243211513
        ]
      },
      "properties": {
        "group_id": "one-northside-organizing-neighborhoods-for-equality",
        "name": "ONE Northside (Organizing Neighborhoods for Equality)",
        "location_name": "Neighbourhood Centroid",
        "address": "Rogers Park / Edgewater / Uptown / Lakeview / North Center / Lincoln Park",
        "verification_status": "VERIFIED",
        "category": "Community Organizing / Neighborhood Advocacy"
      }
    },
    {
      "type": "Feature",
      "geometry": {
        "type": "Point",
        "coordinates": [
          -87.66382605420345,
          41.85420826136612
        ]
      },
      "properties": {
        "group_id": "pilsen-neighbors-community-council-pncc",
        "name": "Pilsen Neighbors Community Council (PNCC)",
        "location_name": "Neighbourhood Centroid",
        "address": "Pilsen / Lower West Side",
        "verification_status": "VERIFIED",
        "category": "Community Organizing / Advocacy"
      }
    },
    {
      "type": "Feature",
      "geometry": {
        "type": "Point",
        "coordinates": [
          -87.74155384978064,
          41.88205304238467
        ]
      },
      "properties": {
        "group_id": "southwest-organizing-project-swop",
        "name": "Southwest Organizing Project (SWOP)",
        "location_name": "Neighbourhood Centroid",
        "address": "Southwest Side (West Elsdon / West Lawn / Gage Park / Chicago Lawn / Ashburn)",
        "verification_status": "VERIFIED",
        "category": "Community Organizing / Neighborhood Advocacy"
      }
    },
    {
      "type": "Feature",
      "geometry": {
        "type": "Point",
        "coordinates": [
          -87.76464079044888,
          41.89874144337441
        ]
      },
      "properties": {
        "group_id": "westside-health-authority-wha",
        "name": "Westside Health Authority (WHA)",
        "location_name": "Neighbourhood Centroid",
        "address": "Austin / West Side",
        "verification_status": "VERIFIED",
        "category": "Community Health / Neighborhood Development"
      }
    },
    {
      "type": "Feature",
      "geometry": {
        "type": "Point",
        "coordinates": [
          -87.72313368869644,
          41.899585875942456
        ]
      },
      "properties": {
        "group_id": "humboldt-park-solidarity-network-casa-hernandez",
        "name": "Humboldt Park Solidarity Network (Casa Hernandez)",
        "location_name": "Neighbourhood Centroid",
        "address": "Humboldt Park",
        "verification_status": "VERIFIED",
        "category": "Neighborhood Mutual Aid / Free Store"
      }
    },
    {
      "type": "Feature",
      "geometry": {
        "type": "Point",
        "coordinates": [
          -87.64713271917446,
          41.94625928498665
        ]
      },
      "properties": {
        "group_id": "lakeview-lincoln-park-mutual-aid-network-llma",
        "name": "Lakeview / Lincoln Park Mutual Aid Network (LLMA)",
        "location_name": "Neighbourhood Centroid",
        "address": "Lakeview / Lincoln Park",
        "verification_status": "VERIFIED",
        "category": "Neighborhood Mutual Aid Network"
      }
    },
    {
      "type": "Feature",
      "geometry": {
        "type": "Point",
        "coordinates": [
          -87.64733157757121,
          41.94630162587
        ]
      },
      "properties": {
        "group_id": "howard-brown-health",
        "name": "Howard Brown Health",
        "location_name": "Neighbourhood Centroid",
        "address": "Multiple (Lakeview",
        "verification_status": "VERIFIED",
        "category": "LGBTQ+ Healthcare"
      }
    },
    {
      "type": "Feature",
      "geometry": {
        "type": "Point",
        "coordinates": [
          -87.65699504792313,
          41.974167739220654
        ]
      },
      "properties": {
        "group_id": "test-positive-aware-network-tpan",
        "name": "Test Positive Aware Network (TPAN)",
        "location_name": "Neighbourhood Centroid",
        "address": "Uptown",
        "verification_status": "VERIFIED",
        "category": "HIV/AIDS Support / Harm Reduction"
      }
    },
    {
      "type": "Feature",
      "geometry": {
        "type": "Point",
        "coordinates": [
          -87.73825639569732,
          41.884396219456804
        ]
      },
      "properties": {
        "group_id": "chicago-lighthouse",
        "name": "Chicago Lighthouse",
        "location_name": "Neighbourhood Centroid",
        "address": "Near West Side",
        "verification_status": "VERIFIED",
        "category": "Disability / Vision Services"
      }
    },
    {
      "type": "Feature",
      "geometry": {
        "type": "Point",
        "coordinates": [
          -87.72798200814488,
          41.954083422002405
        ]
      },
      "properties": {
        "group_id": "communityhealth",
        "name": "CommunityHealth",
        "location_name": "Neighbourhood Centroid",
        "address": "Ukrainian Village / Irving Park",
        "verification_status": "VERIFIED",
        "category": "Free Clinic / Primary Care"
      }
    },
    {
      "type": "Feature",
      "geometry": {
        "type": "Point",
        "coordinates": [
          -87.72033140043374,
          41.90227499289876
        ]
      },
      "properties": {
        "group_id": "connections-for-abused-women-and-their-children-cawc",
        "name": "Connections for Abused Women and Their Children (CAWC)",
        "location_name": "Neighbourhood Centroid",
        "address": "Humboldt Park",
        "verification_status": "VERIFIED",
        "category": "Domestic Violence / Health"
      }
    },
    {
      "type": "Feature",
      "geometry": {
        "type": "Point",
        "coordinates": [
          -87.65828447328369,
          41.975601620399296
        ]
      },
      "properties": {
        "group_id": "heartland-health-outreach",
        "name": "Heartland Health Outreach",
        "location_name": "Neighbourhood Centroid",
        "address": "Uptown / Citywide",
        "verification_status": "VERIFIED",
        "category": "Community Health Center"
      }
    },
    {
      "type": "Feature",
      "geometry": {
        "type": "Point",
        "coordinates": [
          -87.65656217511228,
          41.9745684144327
        ]
      },
      "properties": {
        "group_id": "nami-chicago",
        "name": "NAMI Chicago",
        "location_name": "Neighbourhood Centroid",
        "address": "Uptown",
        "verification_status": "VERIFIED",
        "category": "Mental Health"
      }
    },
    {
      "type": "Feature",
      "geometry": {
        "type": "Point",
        "coordinates": [
          -87.73936340677089,
          41.88073269298405
        ]
      },
      "properties": {
        "group_id": "rush-university-medical-center",
        "name": "Rush University Medical Center",
        "location_name": "Neighbourhood Centroid",
        "address": "Near West Side",
        "verification_status": "VERIFIED",
        "category": "Hospital / Health System"
      }
    },
    {
      "type": "Feature",
      "geometry": {
        "type": "Point",
        "coordinates": [
          -87.66275580366248,
          41.85547514618761
        ]
      },
      "properties": {
        "group_id": "saint-anthony-hospital",
        "name": "Saint Anthony Hospital",
        "location_name": "Neighbourhood Centroid",
        "address": "West Side / Pilsen",
        "verification_status": "VERIFIED",
        "category": "Hospital / Health System"
      }
    },
    {
      "type": "Feature",
      "geometry": {
        "type": "Point",
        "coordinates": [
          -87.72365958982597,
          41.898879646177534
        ]
      },
      "properties": {
        "group_id": "sinai-chicago-mount-sinai-hospital",
        "name": "Sinai Chicago (Mount Sinai Hospital)",
        "location_name": "Neighbourhood Centroid",
        "address": "North Lawndale / Humboldt Park",
        "verification_status": "VERIFIED",
        "category": "Hospital / Health System"
      }
    },
    {
      "type": "Feature",
      "geometry": {
        "type": "Point",
        "coordinates": [
          -87.59569696543748,
          41.795195321725274
        ]
      },
      "properties": {
        "group_id": "uchicago-medicine-comer-children-s-hospital",
        "name": "UChicago Medicine / Comer Children's Hospital",
        "location_name": "Neighbourhood Centroid",
        "address": "Hyde Park",
        "verification_status": "VERIFIED",
        "category": "Hospital / Health System"
      }
    },
    {
      "type": "Feature",
      "geometry": {
        "type": "Point",
        "coordinates": [
          -87.73945328230651,
          41.88343983032961
        ]
      },
      "properties": {
        "group_id": "ui-health-university-of-illinois-hospital",
        "name": "UI Health (University of Illinois Hospital)",
        "location_name": "Neighbourhood Centroid",
        "address": "Near West Side / Medical District",
        "verification_status": "VERIFIED",
        "category": "Hospital / Health System"
      }
    },
    {
      "type": "Feature",
      "geometry": {
        "type": "Point",
        "coordinates": [
          -87.71648395269108,
          41.880230834314446
        ]
      },
      "properties": {
        "group_id": "bethel-new-life",
        "name": "Bethel New Life",
        "location_name": "Neighbourhood Centroid",
        "address": "West Garfield Park",
        "verification_status": "VERIFIED",
        "category": "Community Development/Housing"
      }
    },
    {
      "type": "Feature",
      "geometry": {
        "type": "Point",
        "coordinates": [
          -87.74059853178669,
          41.879903353258065
        ]
      },
      "properties": {
        "group_id": "greater-southwest-development-corporation-gsdc",
        "name": "Greater Southwest Development Corporation (GSDC)",
        "location_name": "Neighbourhood Centroid",
        "address": "Chicago Lawn / Southwest Side",
        "verification_status": "VERIFIED",
        "category": "Commercial & Economic Development"
      }
    },
    {
      "type": "Feature",
      "geometry": {
        "type": "Point",
        "coordinates": [
          -87.62040091405048,
          41.761494017172396
        ]
      },
      "properties": {
        "group_id": "far-south-community-development-corporation",
        "name": "Far South Community Development Corporation",
        "location_name": "Neighbourhood Centroid",
        "address": "Far South Side / South Suburbs",
        "verification_status": "VERIFIED",
        "category": "Economic & Community Development"
      }
    },
    {
      "type": "Feature",
      "geometry": {
        "type": "Point",
        "coordinates": [
          -87.74039151497503,
          41.88243231978459
        ]
      },
      "properties": {
        "group_id": "near-west-side-community-development-corporation-nwscdc",
        "name": "Near West Side Community Development Corporation (NWSCDC)",
        "location_name": "Neighbourhood Centroid",
        "address": "Near West Side",
        "verification_status": "VERIFIED",
        "category": "Community Development/Social Services"
      }
    },
    {
      "type": "Feature",
      "geometry": {
        "type": "Point",
        "coordinates": [
          -87.66215618703286,
          41.749514186840926
        ]
      },
      "properties": {
        "group_id": "neighborhood-housing-services-of-chicago-nhs",
        "name": "Neighborhood Housing Services of Chicago (NHS)",
        "location_name": "Neighbourhood Centroid",
        "address": "Citywide (Auburn Gresham",
        "verification_status": "VERIFIED",
        "category": "Housing/Community Development"
      }
    },
    {
      "type": "Feature",
      "geometry": {
        "type": "Point",
        "coordinates": [
          -87.66366457342954,
          41.75042810304954
        ]
      },
      "properties": {
        "group_id": "greater-auburn-gresham-development-corporation-gadc",
        "name": "Greater Auburn-Gresham Development Corporation (GADC)",
        "location_name": "Neighbourhood Centroid",
        "address": "Auburn Gresham",
        "verification_status": "VERIFIED",
        "category": "Economic & Community Development"
      }
    },
    {
      "type": "Feature",
      "geometry": {
        "type": "Point",
        "coordinates": [
          -87.66059549100554,
          41.85204167952174
        ]
      },
      "properties": {
        "group_id": "pilsen-neighbors-community-council",
        "name": "Pilsen Neighbors Community Council",
        "location_name": "Neighbourhood Centroid",
        "address": "Pilsen",
        "verification_status": "VERIFIED",
        "category": "Community Development/Organizing"
      }
    },
    {
      "type": "Feature",
      "geometry": {
        "type": "Point",
        "coordinates": [
          -87.6635613075526,
          41.85589350094195
        ]
      },
      "properties": {
        "group_id": "the-resurrection-project",
        "name": "The Resurrection Project",
        "location_name": "Neighbourhood Centroid",
        "address": "Pilsen / Little Village / Back of the Yards",
        "verification_status": "VERIFIED",
        "category": "Affordable Housing & Community Development"
      }
    },
    {
      "type": "Feature",
      "geometry": {
        "type": "Point",
        "coordinates": [
          -87.64841231128737,
          41.77083289064869
        ]
      },
      "properties": {
        "group_id": "greater-englewood-community-development-corporation-gecdc",
        "name": "Greater Englewood Community Development Corporation (GECDC)",
        "location_name": "Neighbourhood Centroid",
        "address": "Englewood",
        "verification_status": "VERIFIED",
        "category": "Economic & Community Development"
      }
    },
    {
      "type": "Feature",
      "geometry": {
        "type": "Point",
        "coordinates": [
          -87.61746889870969,
          41.82045677079002
        ]
      },
      "properties": {
        "group_id": "quad-communities-development-corporation-qcdc",
        "name": "Quad Communities Development Corporation (QCDC)",
        "location_name": "Neighbourhood Centroid",
        "address": "Bronzeville / Douglas / Grand Boulevard / Oakland",
        "verification_status": "VERIFIED",
        "category": "Community Development/Planning"
      }
    },
    {
      "type": "Feature",
      "geometry": {
        "type": "Point",
        "coordinates": [
          -87.7658333836997,
          41.89914592795966
        ]
      },
      "properties": {
        "group_id": "westside-health-authority",
        "name": "Westside Health Authority",
        "location_name": "Neighbourhood Centroid",
        "address": "Austin",
        "verification_status": "VERIFIED",
        "category": "Health & Community Development"
      }
    },
    {
      "type": "Feature",
      "geometry": {
        "type": "Point",
        "coordinates": [
          -87.652751813511,
          41.832433178488365
        ]
      },
      "properties": {
        "group_id": "coalition-for-a-better-chinese-american-community-cbcac",
        "name": "Coalition for a Better Chinese American Community (CBCAC)",
        "location_name": "Neighbourhood Centroid",
        "address": "Chinatown / Bridgeport",
        "verification_status": "VERIFIED",
        "category": "Community Development/Advocacy"
      }
    },
    {
      "type": "Feature",
      "geometry": {
        "type": "Point",
        "coordinates": [
          -87.71975267547455,
          41.89783292770795
        ]
      },
      "properties": {
        "group_id": "spanish-coalition-for-housing",
        "name": "Spanish Coalition for Housing",
        "location_name": "Neighbourhood Centroid",
        "address": "Humboldt Park / Citywide",
        "verification_status": "VERIFIED",
        "category": "Affordable Housing/Community Development"
      }
    },
    {
      "type": "Feature",
      "geometry": {
        "type": "Point",
        "coordinates": [
          -87.76786042941306,
          41.90055025203554
        ]
      },
      "properties": {
        "group_id": "south-austin-coalition-community-council",
        "name": "South Austin Coalition Community Council",
        "location_name": "Neighbourhood Centroid",
        "address": "Austin",
        "verification_status": "LIKELY_ACTIVE",
        "category": "Community Organizing/Development"
      }
    },
    {
      "type": "Feature",
      "geometry": {
        "type": "Point",
        "coordinates": [
          -87.61774282781471,
          41.761421415215565
        ]
      },
      "properties": {
        "group_id": "people-for-community-recovery-pcr",
        "name": "People for Community Recovery (PCR)",
        "location_name": "Neighbourhood Centroid",
        "address": "Altgeld Gardens / Far South Side",
        "verification_status": "VERIFIED",
        "category": "Environmental Justice/Community Organizing"
      }
    },
    {
      "type": "Feature",
      "geometry": {
        "type": "Point",
        "coordinates": [
          -87.66133298718373,
          41.85197352202816
        ]
      },
      "properties": {
        "group_id": "pilsen-environmental-rights-and-reform-organization-perro",
        "name": "Pilsen Environmental Rights and Reform Organization (PERRO)",
        "location_name": "Neighbourhood Centroid",
        "address": "Pilsen",
        "verification_status": "VERIFIED",
        "category": "Environmental Justice/Community Organizing"
      }
    },
    {
      "type": "Feature",
      "geometry": {
        "type": "Point",
        "coordinates": [
          -87.74014173790665,
          41.88255204254017
        ]
      },
      "properties": {
        "group_id": "neighbors-for-environmental-justice-n4ej",
        "name": "Neighbors For Environmental Justice (N4EJ)",
        "location_name": "Neighbourhood Centroid",
        "address": "Southwest Side / Citywide",
        "verification_status": "VERIFIED",
        "category": "Environmental Justice/Community Organizing"
      }
    },
    {
      "type": "Feature",
      "geometry": {
        "type": "Point",
        "coordinates": [
          -87.61922844125353,
          41.75797984861002
        ]
      },
      "properties": {
        "group_id": "community-awareness-response-encouraging-sustainability-cares",
        "name": "Community Awareness Response Encouraging Sustainability (CARES)",
        "location_name": "Neighbourhood Centroid",
        "address": "South Side",
        "verification_status": "UNCERTAIN",
        "category": "Environmental Justice/Education"
      }
    },
    {
      "type": "Feature",
      "geometry": {
        "type": "Point",
        "coordinates": [
          -87.66071697092511,
          41.853083835145334
        ]
      },
      "properties": {
        "group_id": "centro-comunitario-juan-diego",
        "name": "Centro Comunitario Juan Diego",
        "location_name": "Neighbourhood Centroid",
        "address": "Pilsen",
        "verification_status": "LIKELY_ACTIVE",
        "category": "Environmental Justice/Community Services"
      }
    },
    {
      "type": "Feature",
      "geometry": {
        "type": "Point",
        "coordinates": [
          -87.61879762641786,
          41.76016991249288
        ]
      },
      "properties": {
        "group_id": "chifresh-kitchen",
        "name": "ChiFresh Kitchen",
        "location_name": "Neighbourhood Centroid",
        "address": "Greater Grand Crossing / South Side",
        "verification_status": "VERIFIED",
        "category": "Worker Cooperative / Food Service"
      }
    },
    {
      "type": "Feature",
      "geometry": {
        "type": "Point",
        "coordinates": [
          -87.76605285353263,
          41.8995772640682
        ]
      },
      "properties": {
        "group_id": "chicago-tool-library",
        "name": "Chicago Tool Library",
        "location_name": "Neighbourhood Centroid",
        "address": "Austin / West Side",
        "verification_status": "VERIFIED",
        "category": "Sharing Economy / Community Cooperative"
      }
    },
    {
      "type": "Feature",
      "geometry": {
        "type": "Point",
        "coordinates": [
          -87.64487260827408,
          41.77450961543176
        ]
      },
      "properties": {
        "group_id": "grow-greater-englewood-gge",
        "name": "Grow Greater Englewood (GGE)",
        "location_name": "Neighbourhood Centroid",
        "address": "Englewood",
        "verification_status": "VERIFIED",
        "category": "Food Justice / Urban Agriculture / Economic Development"
      }
    },
    {
      "type": "Feature",
      "geometry": {
        "type": "Point",
        "coordinates": [
          -87.65907651280504,
          41.96967235501609
        ]
      },
      "properties": {
        "group_id": "new-era-windows-cooperative",
        "name": "New Era Windows Cooperative",
        "location_name": "Neighbourhood Centroid",
        "address": "Goose Island / Near North Side",
        "verification_status": "VERIFIED",
        "category": "Worker Cooperative / Manufacturing"
      }
    },
    {
      "type": "Feature",
      "geometry": {
        "type": "Point",
        "coordinates": [
          -87.59240919664371,
          41.77256775889051
        ]
      },
      "properties": {
        "group_id": "southside-together-organizing-for-power-stop",
        "name": "Southside Together Organizing for Power (STOP)",
        "location_name": "Neighbourhood Centroid",
        "address": "Woodlawn / South Side",
        "verification_status": "VERIFIED",
        "category": "Community Organizing / Economic Justice"
      }
    },
    {
      "type": "Feature",
      "geometry": {
        "type": "Point",
        "coordinates": [
          -87.61818840347624,
          41.7579799612212
        ]
      },
      "properties": {
        "group_id": "ujamaa-community-land-trust",
        "name": "Ujamaa Community Land Trust",
        "location_name": "Neighbourhood Centroid",
        "address": "South Side",
        "verification_status": "LIKELY_ACTIVE",
        "category": "Community Land Trust / Economic Justice"
      }
    },
    {
      "type": "Feature",
      "geometry": {
        "type": "Point",
        "coordinates": [
          -87.74107256966272,
          41.88020910087551
        ]
      },
      "properties": {
        "group_id": "warehouse-workers-for-justice-wwj",
        "name": "Warehouse Workers for Justice (WWJ)",
        "location_name": "Neighbourhood Centroid",
        "address": "Southwest Side / Citywide",
        "verification_status": "VERIFIED",
        "category": "Labor Justice / Worker Rights"
      }
    },
    {
      "type": "Feature",
      "geometry": {
        "type": "Point",
        "coordinates": [
          -87.66538430229508,
          41.99842417689651
        ]
      },
      "properties": {
        "group_id": "wild-onion-market",
        "name": "Wild Onion Market",
        "location_name": "Neighbourhood Centroid",
        "address": "Rogers Park",
        "verification_status": "VERIFIED",
        "category": "Consumer Cooperative / Food Justice"
      }
    },
    {
      "type": "Feature",
      "geometry": {
        "type": "Point",
        "coordinates": [
          -87.61917418763738,
          41.75751438937889
        ]
      },
      "properties": {
        "group_id": "family-rescue",
        "name": "Family Rescue",
        "location_name": "Neighbourhood Centroid",
        "address": "South Side (Stony Island Ave)",
        "verification_status": "VERIFIED",
        "category": "Domestic Violence Shelter & Services"
      }
    },
    {
      "type": "Feature",
      "geometry": {
        "type": "Point",
        "coordinates": [
          -87.6577656205901,
          41.97005894803754
        ]
      },