{
  "type": "FeatureCollection",
  "features": [
    {
      "type": "Feature",
      "geometry": {
        "type": "Point",
        "coordinates": [
          -87.654278,
          41.764971
        ]
      },
      "properties": {
        "group_id": "cooperation-racine",
        "name": "Cooperation Racine",
        "location_name": "",
        "address": "1201 W 71st St",
        "verification_status": "VERIFIED",
        "category": "Worker Co-ops & Economic Justice"
      }
    },
    {
      "type": "Feature",
      "geometry": {
        "type": "Point",
        "coordinates": [
          -87.6411518,
          41.8378541
        ]
      },
      "properties": {
        "group_id": "mouse-arts-letters",
        "name": "mouse-arts-letters",
        "location_name": "",
        "address": "555 W 31st St",
        "verification_status": "UNCERTAIN",
        "category": ""
      }
    },
    {
      "type": "Feature",
      "geometry": {
        "type": "Point",
        "coordinates": [
          -87.6565482,
          41.8309771
        ]
      },
      "properties": {
        "group_id": "bridgeport-alliance",
        "name": "Bridgeport Alliance",
        "location_name": "",
        "address": "1200 W 35th St",
        "verification_status": "VERIFIED",
        "category": "Community Advocacy"
      }
    },
    {
      "type": "Feature",
      "geometry": {
        "type": "Point",
        "coordinates": [
          -87.6238726,
          41.7378107
        ]
      },
      "properties": {
        "group_id": "chatham-avalon-ministries",
        "name": "Chatham-Avalon Ministries",
        "location_name": "",
        "address": "8601 S State St",
        "verification_status": "VERIFIED",
        "category": "Food Security"
      }
    },
    {
      "type": "Feature",
      "geometry": {
        "type": "Point",
        "coordinates": [
          -87.6211704,
          41.6964894
        ]
      },
      "properties": {
        "group_id": "roseland-christian-ministries",
        "name": "Roseland Christian Ministries",
        "location_name": "",
        "address": "10858 S Michigan Ave",
        "verification_status": "VERIFIED",
        "category": "Food Security"
      }
    },
    {
      "type": "Feature",
      "geometry": {
        "type": "Point",
        "coordinates": [
          -87.6418495,
          41.68791
        ]
      },
      "properties": {
        "group_id": "sheldon-heights-pantry",
        "name": "sheldon-heights-pantry",
        "location_name": "",
        "address": "11325 S Halsted St",
        "verification_status": "UNCERTAIN",
        "category": ""
      }
    },
    {
      "type": "Feature",
      "geometry": {
        "type": "Point",
        "coordinates": [
          -87.6519522,
          41.7507436
        ]
      },
      "properties": {
        "group_id": "st-sabina-pantry",
        "name": "st-sabina-pantry",
        "location_name": "",
        "address": "1120 W 79th St",
        "verification_status": "UNCERTAIN",
        "category": ""
      }
    },
    {
      "type": "Feature",
      "geometry": {
        "type": "Point",
        "coordinates": [
          -87.6558462,
          41.9734307
        ]
      },
      "properties": {
        "group_id": "chinese-mutual-aid",
        "name": "chinese-mutual-aid",
        "location_name": "",
        "address": "1016 W Argyle St",
        "verification_status": "UNCERTAIN",
        "category": ""
      }
    },
    {
      "type": "Feature",
      "geometry": {
        "type": "Point",
        "coordinates": [
          -87.6291299,
          41.8829338
        ]
      },
      "properties": {
        "group_id": "cvls",
        "name": "cvls",
        "location_name": "",
        "address": "33 N Dearborn St",
        "verification_status": "UNCERTAIN",
        "category": ""
      }
    },
    {
      "type": "Feature",
      "geometry": {
        "type": "Point",
        "coordinates": [
          -87.716317,
          41.887647
        ]
      },
      "properties": {
        "group_id": "garfield-park-cc",
        "name": "garfield-park-cc",
        "location_name": "",
        "address": "300 N Central Park Ave",
        "verification_status": "UNCERTAIN",
        "category": ""
      }
    },
    {
      "type": "Feature",
      "geometry": {
        "type": "Point",
        "coordinates": [
          -87.6595159,
          41.8277727
        ]
      },
      "properties": {
        "group_id": "love-fridge-chicago",
        "name": "love-fridge-chicago",
        "location_name": "The Fridge on Marz",
        "address": "3630 S Iron St",
        "verification_status": "UNCERTAIN",
        "category": ""
      }
    },
    {
      "type": "Feature",
      "geometry": {
        "type": "Point",
        "coordinates": [
          -87.5313533,
          41.6916639
        ]
      },
      "properties": {
        "group_id": "love-fridge-chicago",
        "name": "love-fridge-chicago",
        "location_name": "The Kindness Korner",
        "address": "11201 S Ave G",
        "verification_status": "UNCERTAIN",
        "category": ""
      }
    },
    {
      "type": "Feature",
      "geometry": {
        "type": "Point",
        "coordinates": [
          -87.6946065,
          41.8536568
        ]
      },
      "properties": {
        "group_id": "love-fridge-chicago",
        "name": "love-fridge-chicago",
        "location_name": "The Love Shack",
        "address": "2751 W 21st St",
        "verification_status": "UNCERTAIN",
        "category": ""
      }
    },
    {
      "type": "Feature",
      "geometry": {
        "type": "Point",
        "coordinates": [
          -87.7074257,
          41.9174776
        ]
      },
      "properties": {
        "group_id": "love-fridge-chicago",
        "name": "love-fridge-chicago",
        "location_name": "BInk Food Bank",
        "address": "3206 W Armitage Ave",
        "verification_status": "UNCERTAIN",
        "category": ""
      }
    },
    {
      "type": "Feature",
      "geometry": {
        "type": "Point",
        "coordinates": [
          -87.6620178,
          41.8562604
        ]
      },
      "properties": {
        "group_id": "love-fridge-chicago",
        "name": "love-fridge-chicago",
        "location_name": "Comida Para el Pueblo",
        "address": "1855 S Blue Island Ave",
        "verification_status": "UNCERTAIN",
        "category": ""
      }
    },
    {
      "type": "Feature",
      "geometry": {
        "type": "Point",
        "coordinates": [
          -87.6497246,
          41.7785766
        ]
      },
      "properties": {
        "group_id": "love-fridge-chicago",
        "name": "love-fridge-chicago",
        "location_name": "Getting Grown Collective",
        "address": "6344 S Morgan St",
        "verification_status": "UNCERTAIN",
        "category": ""
      }
    },
    {
      "type": "Feature",
      "geometry": {
        "type": "Point",
        "coordinates": [
          -87.7222975,
          41.7730604
        ]
      },
      "properties": {
        "group_id": "love-fridge-chicago",
        "name": "love-fridge-chicago",
        "location_name": "Good Neighbor Love Fridge",
        "address": "6601 S Pulaski Rd",
        "verification_status": "UNCERTAIN",
        "category": ""
      }
    },
    {
      "type": "Feature",
      "geometry": {
        "type": "Point",
        "coordinates": [
          -87.6151687,
          41.7603438
        ]
      },
      "properties": {
        "group_id": "love-fridge-chicago",
        "name": "love-fridge-chicago",
        "location_name": "Sacred Keepers Love Fridge",
        "address": "4445 S King Dr",
        "verification_status": "UNCERTAIN",
        "category": ""
      }
    },
    {
      "type": "Feature",
      "geometry": {
        "type": "Point",
        "coordinates": [
          -87.56404,
          41.7606293
        ]
      },
      "properties": {
        "group_id": "love-fridge-chicago",
        "name": "love-fridge-chicago",
        "location_name": "South Shore Love Fridge",
        "address": "2465 E 74th St",
        "verification_status": "UNCERTAIN",
        "category": ""
      }
    },
    {
      "type": "Feature",
      "geometry": {
        "type": "Point",
        "coordinates": [
          -87.6719365,
          41.8000647
        ]
      },
      "properties": {
        "group_id": "love-fridge-chicago",
        "name": "love-fridge-chicago",
        "location_name": "Star Farm Love Fridge",
        "address": "5155 S Wolcott Ave",
        "verification_status": "UNCERTAIN",
        "category": ""
      }
    },
    {
      "type": "Feature",
      "geometry": {
        "type": "Point",
        "coordinates": [
          -87.7161716,
          41.8629262
        ]
      },
      "properties": {
        "group_id": "love-fridge-chicago",
        "name": "love-fridge-chicago",
        "location_name": "Stone Temple Fridge",
        "address": "3622 W Douglas Blvd",
        "verification_status": "UNCERTAIN",
        "category": ""
      }
    },
    {
      "type": "Feature",
      "geometry": {
        "type": "Point",
        "coordinates": [
          -87.65168898374051,
          41.83060551135083
        ]
      },
      "properties": {
        "group_id": "urban-growers-collective",
        "name": "Urban Growers Collective",
        "location_name": "Neighbourhood Centroid",
        "address": "Bridgeport/Armour",
        "verification_status": "VERIFIED",
        "category": "Food Security"
      }
    },
    {
      "type": "Feature",
      "geometry": {
        "type": "Point",
        "coordinates": [
          -87.59129002701923,
          41.77547274917525
        ]
      },
      "properties": {
        "group_id": "southside-nature-play",
        "name": "Southside Nature Play",
        "location_name": "Neighbourhood Centroid",
        "address": "Woodlawn",
        "verification_status": "LIKELY_ACTIVE",
        "category": "Environmental & Green Space"
      }
    },
    {
      "type": "Feature",
      "geometry": {
        "type": "Point",
        "coordinates": [
          -87.61733559942087,
          41.82391978862465
        ]
      },
      "properties": {
        "group_id": "lake-meadows-park-advisory-council",
        "name": "Lake Meadows Park Advisory Council",
        "location_name": "Neighbourhood Centroid",
        "address": "Bronzeville",
        "verification_status": "UNCERTAIN",
        "category": "Environmental & Green Space"
      }
    },
    {
      "type": "Feature",
      "geometry": {
        "type": "Point",
        "coordinates": [
          -87.61905172105952,
          41.82320794657826
        ]
      },
      "properties": {
        "group_id": "mouse-arts-letters-social-club",
        "name": "Mouse Arts & Letters Social Club",
        "location_name": "Neighbourhood Centroid",
        "address": "Bronzeville",
        "verification_status": "UNCERTAIN",
        "category": "Arts & Culture"
      }
    },
    {
      "type": "Feature",
      "geometry": {
        "type": "Point",
        "coordinates": [
          -87.70913803460928,
          41.942589477104356
        ]
      },
      "properties": {
        "group_id": "avondale-mutual-aid",
        "name": "Avondale Mutual Aid",
        "location_name": "Neighbourhood Centroid",
        "address": "Avondale",
        "verification_status": "VERIFIED",
        "category": "Mutual Aid - General"
      }
    },
    {
      "type": "Feature",
      "geometry": {
        "type": "Point",
        "coordinates": [
          -87.65817072570675,
          41.98992343331554
        ]
      },
      "properties": {
        "group_id": "edgewater-mutual-aid-eman",
        "name": "Edgewater Mutual Aid (EMAN)",
        "location_name": "Neighbourhood Centroid",
        "address": "Edgewater",
        "verification_status": "VERIFIED",
        "category": "Mutual Aid - General"
      }
    },
    {
      "type": "Feature",
      "geometry": {
        "type": "Point",
        "coordinates": [
          -87.69007437199788,
          42.044935821951675
        ]
      },
      "properties": {
        "group_id": "evanston-community-fridges",
        "name": "Evanston Community Fridges",
        "location_name": "Neighbourhood Centroid",
        "address": "Evanston",
        "verification_status": "VERIFIED",
        "category": "Food Security"
      }
    },
    {
      "type": "Feature",
      "geometry": {
        "type": "Point",
        "coordinates": [
          -87.7069312232917,
          41.9238239390995
        ]
      },
      "properties": {
        "group_id": "logan-square-mutual-aid",
        "name": "Logan Square Mutual Aid",
        "location_name": "Neighbourhood Centroid",
        "address": "Logan Square",
        "verification_status": "VERIFIED",
        "category": "Mutual Aid - General"
      }
    },
    {
      "type": "Feature",
      "geometry": {
        "type": "Point",
        "coordinates": [
          -87.663283815134,
          41.855379353807166
        ]
      },
      "properties": {
        "group_id": "pilsen-solidarity-network",
        "name": "Pilsen Solidarity Network",
        "location_name": "Neighbourhood Centroid",
        "address": "Pilsen",
        "verification_status": "VERIFIED",
        "category": "Mutual Aid - General"
      }
    },
    {
      "type": "Feature",
      "geometry": {
        "type": "Point",
        "coordinates": [
          -87.76392556702733,
          41.8970757767006
        ]
      },
      "properties": {
        "group_id": "westside-mutual-aid",
        "name": "Westside Mutual Aid",
        "location_name": "Neighbourhood Centroid",
        "address": "Austin",
        "verification_status": "VERIFIED",
        "category": "Mutual Aid - General"
      }
    },
    {
      "type": "Feature",
      "geometry": {
        "type": "Point",
        "coordinates": [
          -87.72545296524216,
          41.96888315083808
        ]
      },
      "properties": {
        "group_id": "albany-park-mutual-aid",
        "name": "Albany Park Mutual Aid",
        "location_name": "Neighbourhood Centroid",
        "address": "Albany Park",
        "verification_status": "VERIFIED",
        "category": "Mutual Aid - General"
      }
    },
    {
      "type": "Feature",
      "geometry": {
        "type": "Point",
        "coordinates": [
          -87.71969815147736,
          41.90110923874823
        ]
      },
      "properties": {
        "group_id": "hp-solidarity-network",
        "name": "HP Solidarity Network",
        "location_name": "Neighbourhood Centroid",
        "address": "Humboldt Park",
        "verification_status": "VERIFIED",
        "category": "Mutual Aid - General"
      }
    },
    {
      "type": "Feature",
      "geometry": {
        "type": "Point",
        "coordinates": [
          -87.72401783995906,
          41.95234627037406
        ]
      },
      "properties": {
        "group_id": "irving-park-mutual-aid",
        "name": "Irving Park Mutual Aid",
        "location_name": "Neighbourhood Centroid",
        "address": "Irving Park",
        "verification_status": "VERIFIED",
        "category": "Mutual Aid - General"
      }
    },
    {
      "type": "Feature",
      "geometry": {
        "type": "Point",
        "coordinates": [
          -87.75251837756169,
          41.970016037037375
        ]
      },
      "properties": {
        "group_id": "mayfair-mutual-aid",
        "name": "Mayfair Mutual Aid",
        "location_name": "Neighbourhood Centroid",
        "address": "Mayfair",
        "verification_status": "VERIFIED",
        "category": "Mutual Aid - General"
      }
    },
    {
      "type": "Feature",
      "geometry": {
        "type": "Point",
        "coordinates": [
          -87.66472004118152,
          41.997926457588775
        ]
      },
      "properties": {
        "group_id": "po-box-collective",
        "name": "PO Box Collective",
        "location_name": "Neighbourhood Centroid",
        "address": "Rogers Park",
        "verification_status": "VERIFIED",
        "category": "Social Justice"
      }
    },
    {
      "type": "Feature",
      "geometry": {
        "type": "Point",
        "coordinates": [
          -87.62013911234708,
          41.75802944215786
        ]
      },
      "properties": {
        "group_id": "southside-together",
        "name": "Southside Together",
        "location_name": "Neighbourhood Centroid",
        "address": "South Side",
        "verification_status": "VERIFIED",
        "category": "Social Justice"
      }
    },
    {
      "type": "Feature",
      "geometry": {
        "type": "Point",
        "coordinates": [
          -87.73773777288862,
          41.882825858743686
        ]
      },
      "properties": {
        "group_id": "southwest-collective",
        "name": "Southwest Collective",
        "location_name": "Neighbourhood Centroid",
        "address": "Southwest Side",
        "verification_status": "VERIFIED",
        "category": "Community Advocacy"
      }
    },
    {
      "type": "Feature",
      "geometry": {
        "type": "Point",
        "coordinates": [
          -87.6221928406085,
          41.76058045312751
        ]
      },
      "properties": {
        "group_id": "brave-space-alliance",
        "name": "Brave Space Alliance",
        "location_name": "Neighbourhood Centroid",
        "address": "South Side",
        "verification_status": "VERIFIED",
        "category": "Healthcare & Wellness"
      }
    },
    {
      "type": "Feature",
      "geometry": {
        "type": "Point",
        "coordinates": [
          -87.61996373931984,
          41.761714536951494
        ]
      },
      "properties": {
        "group_id": "chicago-united-solidarity-project-cusp",
        "name": "Chicago United Solidarity Project (CUSP)",
        "location_name": "Neighbourhood Centroid",
        "address": "South Side",
        "verification_status": "VERIFIED",
        "category": "Mutual Aid - General"
      }
    },
    {
      "type": "Feature",
      "geometry": {
        "type": "Point",
        "coordinates": [
          -87.65657748166856,
          41.97128252230033
        ]
      },
      "properties": {
        "group_id": "chinese-mutual-aid-association-cmaa",
        "name": "Chinese Mutual Aid Association (CMAA)",
        "location_name": "Neighbourhood Centroid",
        "address": "Uptown/Argyle",
        "verification_status": "VERIFIED",
        "category": "Migrant & Immigrant Support"
      }
    },
    {
      "type": "Feature",
      "geometry": {
        "type": "Point",
        "coordinates": [
          -87.62039280540178,
          41.761909531499114
        ]
      },
      "properties": {
        "group_id": "market-box-chicago",
        "name": "Market Box Chicago",
        "location_name": "Neighbourhood Centroid",
        "address": "South Side",
        "verification_status": "VERIFIED",
        "category": "Food Security"
      }
    },
    {
      "type": "Feature",
      "geometry": {
        "type": "Point",
        "coordinates": [
          -87.64704960384582,
          41.946004152966005
        ]
      },
      "properties": {
        "group_id": "lakeview-lincoln-park-mutual-aid",
        "name": "Lakeview/Lincoln Park Mutual Aid",
        "location_name": "Neighbourhood Centroid",
        "address": "Lakeview",
        "verification_status": "VERIFIED",
        "category": "Mutual Aid - General"
      }
    },
    {
      "type": "Feature",
      "geometry": {
        "type": "Point",
        "coordinates": [
          -87.7392440368021,
          41.880678577210396
        ]
      },
      "properties": {
        "group_id": "northwest-side-solidarity-network",
        "name": "Northwest Side Solidarity Network",
        "location_name": "Neighbourhood Centroid",
        "address": "Northwest Side",
        "verification_status": "VERIFIED",
        "category": "Mutual Aid - General"
      }
    },
    {
      "type": "Feature",
      "geometry": {
        "type": "Point",
        "coordinates": [
          -87.6622822816934,
          41.99588915243039
        ]
      },
      "properties": {
        "group_id": "one-northside",
        "name": "ONE Northside",
        "location_name": "Neighbourhood Centroid",
        "address": "Rogers Park",
        "verification_status": "VERIFIED",
        "category": "Community Advocacy"
      }
    },
    {
      "type": "Feature",
      "geometry": {
        "type": "Point",
        "coordinates": [
          -87.72050704173276,
          41.88150571159216
        ]
      },
      "properties": {
        "group_id": "garfield-park-community-council",
        "name": "Garfield Park Community Council",
        "location_name": "Neighbourhood Centroid",
        "address": "Garfield Park",
        "verification_status": "VERIFIED",
        "category": "Food Security / Community Development"
      }
    },
    {
      "type": "Feature",
      "geometry": {
        "type": "Point",
        "coordinates": [
          -87.7382870865658,
          41.88384197419195
        ]
      },
      "properties": {
        "group_id": "john-walt-foundation",
        "name": "John Walt Foundation",
        "location_name": "Neighbourhood Centroid",
        "address": "West Side",
        "verification_status": "VERIFIED",
        "category": "Food Security"
      }
    },
    {
      "type": "Feature",
      "geometry": {
        "type": "Point",
        "coordinates": [
          -87.64910769172037,
          41.94415268508302
        ]
      },
      "properties": {
        "group_id": "center-on-halsted",
        "name": "Center on Halsted",
        "location_name": "Neighbourhood Centroid",
        "address": "Lakeview",
        "verification_status": "VERIFIED",
        "category": "LGBTQ+ Support"
      }
    },
    {
      "type": "Feature",
      "geometry": {
        "type": "Point",
        "coordinates": [
          -87.74033672280873,
          41.8804097713909
        ]
      },
      "properties": {
        "group_id": "chicago-environmental-justice-network-cejn",
        "name": "Chicago Environmental Justice Network (CEJN)",
        "location_name": "Neighbourhood Centroid",
        "address": "South and West Sides",
        "verification_status": "VERIFIED",
        "category": "Environmental Justice"
      }
    },
    {
      "type": "Feature",
      "geometry": {
        "type": "Point",
        "coordinates": [
          -87.74153143098549,
          41.88141437808095
        ]
      },
      "properties": {
        "group_id": "sarah-s-inn",
        "name": "Sarah's Inn",
        "location_name": "Neighbourhood Centroid",
        "address": "West Side",
        "verification_status": "VERIFIED",
        "category": "Domestic Violence Support"
      }
    },
    {
      "type": "Feature",
      "geometry": {
        "type": "Point",
        "coordinates": [
          -87.76579781715877,
          41.8966358877977
        ]
      },
      "properties": {
        "group_id": "westside-community-development-collaboration",
        "name": "Westside Community Development Collaboration",
        "location_name": "Neighbourhood Centroid",
        "address": "Austin",
        "verification_status": "VERIFIED",
        "category": "Community Development"
      }
    },
    {
      "type": "Feature",
      "geometry": {
        "type": "Point",
        "coordinates": [
          -87.59495306534123,
          41.795632086268846
        ]
      },
      "properties": {
        "group_id": "uchrp-u-of-chicago-harm-reduction-project",
        "name": "UCHRP (U of Chicago Harm Reduction Project)",
        "location_name": "Neighbourhood Centroid",
        "address": "Hyde Park / South Side",
        "verification_status": "VERIFIED",
        "category": "Harm Reduction"
      }
    },
    {
      "type": "Feature",
      "geometry": {
        "type": "Point",
        "coordinates": [
          -87.65868281744063,
          41.97264915052867
        ]
      },
      "properties": {
        "group_id": "american-indian-center-chicago",
        "name": "American Indian Center Chicago",
        "location_name": "Neighbourhood Centroid",
        "address": "Uptown / Citywide",
        "verification_status": "VERIFIED",
        "category": "Indigenous Solidarity"
      }
    },
    {
      "type": "Feature",
      "geometry": {
        "type": "Point",
        "coordinates": [
          -87.59763382082292,
          41.79543458417293
        ]
      },
      "properties": {
        "group_id": "hyde-park-art-center",
        "name": "Hyde Park Art Center",
        "location_name": "Neighbourhood Centroid",
        "address": "Hyde Park",
        "verification_status": "VERIFIED",
        "category": "Arts & Culture"
      }
    },
    {
      "type": "Feature",
      "geometry": {
        "type": "Point",
        "coordinates": [
          -87.62248061855564,
          41.693476202406565
        ]
      },
      "properties": {
        "group_id": "roseland-ceasefire",
        "name": "Roseland Ceasefire",
        "location_name": "Neighbourhood Centroid",
        "address": "Roseland",
        "verification_status": "VERIFIED",
        "category": "Community Advocacy"
      }
    },
    {
      "type": "Feature",
      "geometry": {
        "type": "Point",
        "coordinates": [
          -87.62089653711537,
          41.69408999827021
        ]
      },
      "properties": {
        "group_id": "sheldon-heights-coc-food-pantry",
        "name": "Sheldon Heights CoC Food Pantry",
        "location_name": "Neighbourhood Centroid",
        "address": "Roseland",
        "verification_status": "VERIFIED",
        "category": "Food Security"
      }
    },
    {
      "type": "Feature",
      "geometry": {
        "type": "Point",
        "coordinates": [
          -87.66173243534465,
          41.74948342740983
        ]
      },
      "properties": {
        "group_id": "st-sabina-church-food-pantry",
        "name": "St. Sabina Church Food Pantry",
        "location_name": "Neighbourhood Centroid",
        "address": "Auburn Gresham",
        "verification_status": "VERIFIED",
        "category": "Food Security"
      }
    },
    {
      "type": "Feature",
      "geometry": {
        "type": "Point",
        "coordinates": [
          -87.68981540590983,
          42.04614940473574
        ]
      },
      "properties": {
        "group_id": "evanston-community-cares",
        "name": "Evanston Community Cares",
        "location_name": "Neighbourhood Centroid",
        "address": "Evanston",
        "verification_status": "VERIFIED",
        "category": "Mutual Aid - General"
      }
    },
    {
      "type": "Feature",
      "geometry": {
        "type": "Point",
        "coordinates": [
          -87.68721131595733,
          42.04669523269412
        ]
      },
      "properties": {
        "group_id": "evanston-skokie-mutual-aid-network",
        "name": "Evanston/Skokie Mutual Aid Network",
        "location_name": "Neighbourhood Centroid",
        "address": "Evanston",
        "verification_status": "VERIFIED",
        "category": "Mutual Aid - General"
      }
    },
    {
      "type": "Feature",
      "geometry": {
        "type": "Point",
        "coordinates": [
          -87.62372117672145,
          41.6931123947864
        ]
      },
      "properties": {
        "group_id": "greater-roseland-west-pullman-food-network",
        "name": "Greater Roseland West Pullman Food Network",
        "location_name": "Neighbourhood Centroid",
        "address": "Roseland",
        "verification_status": "VERIFIED",
        "category": "Food Security"
      }
    },
    {
      "type": "Feature",
      "geometry": {
        "type": "Point",
        "coordinates": [
          -87.66511993176638,
          41.74945277464497
        ]
      },
      "properties": {
        "group_id": "target-area-development-corporation",
        "name": "Target Area Development Corporation",
        "location_name": "Neighbourhood Centroid",
        "address": "Auburn Gresham",
        "verification_status": "VERIFIED",
        "category": "Food Security"
      }
    },
    {
      "type": "Feature",
      "geometry": {
        "type": "Point",
        "coordinates": [
          -87.66405260677705,
          41.74972168013901
        ]
      },
      "properties": {
        "group_id": "greater-auburn-gresham-development-corporation-gagdc",
        "name": "Greater Auburn Gresham Development Corporation (GAGDC)",
        "location_name": "Neighbourhood Centroid",
        "address": "Auburn Gresham",
        "verification_status": "VERIFIED",
        "category": "Community Development"
      }
    },
    {
      "type": "Feature",
      "geometry": {
        "type": "Point",
        "coordinates": [
          -87.62006490180897,
          41.691601706487425
        ]
      },
      "properties": {
        "group_id": "youth-peace-center-of-roseland",
        "name": "Youth Peace Center of Roseland",
        "location_name": "Neighbourhood Centroid",
        "address": "Roseland",
        "verification_status": "VERIFIED",
        "category": "Youth & Education"
      }
    },
    {
      "type": "Feature",
      "geometry": {
        "type": "Point",
        "coordinates": [
          -87.62208171185897,
          41.69170686360951
        ]
      },
      "properties": {
        "group_id": "peaceplayers-chicago",
        "name": "PeacePlayers Chicago",
        "location_name": "Neighbourhood Centroid",
        "address": "Roseland",
        "verification_status": "VERIFIED",
        "category": "Youth & Education"
      }
    },
    {
      "type": "Feature",
      "geometry": {
        "type": "Point",
        "coordinates": [
          -87.59190444865371,
          41.7762699153765
        ]
      },
      "properties": {
        "group_id": "southside-nature-play",
        "name": "Southside Nature Play",
        "location_name": "Neighbourhood Centroid",
        "address": "Woodlawn",
        "verification_status": "LIKELY_ACTIVE",
        "category": "Environmental & Green Space"
      }
    }
  ]
}