{
  "type": "FeatureCollection",
  "features": [
    {
      "type": "Feature",
      "geometry": {
        "type": "Point",
        "coordinates": [
          -87.654278,
          41.764971
        ]
      },
      "properties": {
        "group_id": "cooperation-racine",
        "name": "Cooperation Racine",
        "location_name": "",
        "address": "1201 W 71st St",
        "verification_status": "VERIFIED",
        "category": "Worker Co-ops & Economic Justice"
      }
    },
    {
      "type": "Feature",
      "geometry": {
        "type": "Point",
        "coordinates": [
          -87.6411518,
          41.8378541
        ]
      },
      "properties": {
        "group_id": "mouse-arts-letters",
        "name": "mouse-arts-letters",
        "location_name": "",
        "address": "555 W 31st St",
        "verification_status": "UNCERTAIN",
        "category": ""
      }
    },
    {
      "type": "Feature",
      "geometry": {
        "type": "Point",
        "coordinates": [
          -87.6565482,
          41.8309771
        ]
      },
      "properties": {
        "group_id": "bridgeport-alliance",
        "name": "Bridgeport Alliance",
        "location_name": "",
        "address": "1200 W 35th St",
        "verification_status": "VERIFIED",
        "category": "Community Advocacy"
      }
    },
    {
      "type": "Feature",
      "geometry": {
        "type": "Point",
        "coordinates": [
          -87.6238726,
          41.7378107
        ]
      },
      "properties": {
        "group_id": "chatham-avalon-ministries",
        "name": "Chatham-Avalon Ministries",
        "location_name": "",
        "address": "8601 S State St",
        "verification_status": "VERIFIED",
        "category": "Food Security"
      }
    },
    {
      "type": "Feature",
      "geometry": {
        "type": "Point",
        "coordinates": [
          -87.6211704,
          41.6964894
        ]
      },
      "properties": {
        "group_id": "roseland-christian-ministries",
        "name": "Roseland Christian Ministries",
        "location_name": "",
        "address": "10858 S Michigan Ave",
        "verification_status": "VERIFIED",
        "category": "Food Security"
      }
    },
    {
      "type": "Feature",
      "geometry": {
        "type": "Point",
        "coordinates": [
          -87.6418495,
          41.68791
        ]
      },
      "properties": {
        "group_id": "sheldon-heights-pantry",
        "name": "sheldon-heights-pantry",
        "location_name": "",
        "address": "11325 S Halsted St",
        "verification_status": "UNCERTAIN",
        "category": ""
      }
    },
    {
      "type": "Feature",
      "geometry": {
        "type": "Point",
        "coordinates": [
          -87.6519522,
          41.7507436
        ]
      },
      "properties": {
        "group_id": "st-sabina-pantry",
        "name": "st-sabina-pantry",
        "location_name": "",
        "address": "1120 W 79th St",
        "verification_status": "UNCERTAIN",
        "category": ""
      }
    },
    {
      "type": "Feature",
      "geometry": {
        "type": "Point",
        "coordinates": [
          -87.6558462,
          41.9734307
        ]
      },
      "properties": {
        "group_id": "chinese-mutual-aid",
        "name": "chinese-mutual-aid",
        "location_name": "",
        "address": "1016 W Argyle St",
        "verification_status": "UNCERTAIN",
        "category": ""
      }
    },
    {
      "type": "Feature",
      "geometry": {
        "type": "Point",
        "coordinates": [
          -87.6291299,
          41.8829338
        ]
      },
      "properties": {
        "group_id": "cvls",
        "name": "cvls",
        "location_name": "",
        "address": "33 N Dearborn St",
        "verification_status": "UNCERTAIN",
        "category": ""
      }
    },
    {
      "type": "Feature",
      "geometry": {
        "type": "Point",
        "coordinates": [
          -87.716317,
          41.887647
        ]
      },
      "properties": {
        "group_id": "garfield-park-cc",
        "name": "garfield-park-cc",
        "location_name": "",
        "address": "300 N Central Park Ave",
        "verification_status": "UNCERTAIN",
        "category": ""
      }
    },
    {
      "type": "Feature",
      "geometry": {
        "type": "Point",
        "coordinates": [
          -87.6595159,
          41.8277727
        ]
      },
      "properties": {
        "group_id": "love-fridge-chicago",
        "name": "Love Fridge Chicago",
        "location_name": "The Fridge on Marz",
        "address": "3630 S Iron St",
        "verification_status": "VERIFIED",
        "category": "Mutual Aid / Community Fridges"
      }
    },
    {
      "type": "Feature",
      "geometry": {
        "type": "Point",
        "coordinates": [
          -87.5313533,
          41.6916639
        ]
      },
      "properties": {
        "group_id": "love-fridge-chicago",
        "name": "Love Fridge Chicago",
        "location_name": "The Kindness Korner",
        "address": "11201 S Ave G",
        "verification_status": "VERIFIED",
        "category": "Mutual Aid / Community Fridges"
      }
    },
    {
      "type": "Feature",
      "geometry": {
        "type": "Point",
        "coordinates": [
          -87.6946065,
          41.8536568
        ]
      },
      "properties": {
        "group_id": "love-fridge-chicago",
        "name": "Love Fridge Chicago",
        "location_name": "The Love Shack",
        "address": "2751 W 21st St",
        "verification_status": "VERIFIED",
        "category": "Mutual Aid / Community Fridges"
      }
    },
    {
      "type": "Feature",
      "geometry": {
        "type": "Point",
        "coordinates": [
          -87.7074257,
          41.9174776
        ]
      },
      "properties": {
        "group_id": "love-fridge-chicago",
        "name": "Love Fridge Chicago",
        "location_name": "BInk Food Bank",
        "address": "3206 W Armitage Ave",
        "verification_status": "VERIFIED",
        "category": "Mutual Aid / Community Fridges"
      }
    },
    {
      "type": "Feature",
      "geometry": {
        "type": "Point",
        "coordinates": [
          -87.6620178,
          41.8562604
        ]
      },
      "properties": {
        "group_id": "love-fridge-chicago",
        "name": "Love Fridge Chicago",
        "location_name": "Comida Para el Pueblo",
        "address": "1855 S Blue Island Ave",
        "verification_status": "VERIFIED",
        "category": "Mutual Aid / Community Fridges"
      }
    },
    {
      "type": "Feature",
      "geometry": {
        "type": "Point",
        "coordinates": [
          -87.6497246,
          41.7785766
        ]
      },
      "properties": {
        "group_id": "love-fridge-chicago",
        "name": "Love Fridge Chicago",
        "location_name": "Getting Grown Collective",
        "address": "6344 S Morgan St",
        "verification_status": "VERIFIED",
        "category": "Mutual Aid / Community Fridges"
      }
    },
    {
      "type": "Feature",
      "geometry": {
        "type": "Point",
        "coordinates": [
          -87.7222975,
          41.7730604
        ]
      },
      "properties": {
        "group_id": "love-fridge-chicago",
        "name": "Love Fridge Chicago",
        "location_name": "Good Neighbor Love Fridge",
        "address": "6601 S Pulaski Rd",
        "verification_status": "VERIFIED",
        "category": "Mutual Aid / Community Fridges"
      }
    },
    {
      "type": "Feature",
      "geometry": {
        "type": "Point",
        "coordinates": [
          -87.6151687,
          41.7603438
        ]
      },
      "properties": {
        "group_id": "love-fridge-chicago",
        "name": "Love Fridge Chicago",
        "location_name": "Sacred Keepers Love Fridge",
        "address": "4445 S King Dr",
        "verification_status": "VERIFIED",
        "category": "Mutual Aid / Community Fridges"
      }
    },
    {
      "type": "Feature",
      "geometry": {
        "type": "Point",
        "coordinates": [
          -87.56404,
          41.7606293
        ]
      },
      "properties": {
        "group_id": "love-fridge-chicago",
        "name": "Love Fridge Chicago",
        "location_name": "South Shore Love Fridge",
        "address": "2465 E 74th St",
        "verification_status": "VERIFIED",
        "category": "Mutual Aid / Community Fridges"
      }
    },
    {
      "type": "Feature",
      "geometry": {
        "type": "Point",
        "coordinates": [
          -87.6719365,
          41.8000647
        ]
      },
      "properties": {
        "group_id": "love-fridge-chicago",
        "name": "Love Fridge Chicago",
        "location_name": "Star Farm Love Fridge",
        "address": "5155 S Wolcott Ave",
        "verification_status": "VERIFIED",
        "category": "Mutual Aid / Community Fridges"
      }
    },
    {
      "type": "Feature",
      "geometry": {
        "type": "Point",
        "coordinates": [
          -87.7161716,
          41.8629262
        ]
      },
      "properties": {
        "group_id": "love-fridge-chicago",
        "name": "Love Fridge Chicago",
        "location_name": "Stone Temple Fridge",
        "address": "3622 W Douglas Blvd",
        "verification_status": "VERIFIED",
        "category": "Mutual Aid / Community Fridges"
      }
    },
    {
      "type": "Feature",
      "geometry": {
        "type": "Point",
        "coordinates": [
          -87.6510502276316,
          41.83128831516517
        ]
      },
      "properties": {
        "group_id": "urban-growers-collective",
        "name": "Urban Growers Collective",
        "location_name": "Neighbourhood Centroid",
        "address": "Bridgeport/Armour",
        "verification_status": "VERIFIED",
        "category": "Food Security"
      }
    },
    {
      "type": "Feature",
      "geometry": {
        "type": "Point",
        "coordinates": [
          -87.5904401958237,
          41.777001105521144
        ]
      },
      "properties": {
        "group_id": "southside-nature-play",
        "name": "Southside Nature Play",
        "location_name": "Neighbourhood Centroid",
        "address": "Woodlawn",
        "verification_status": "LIKELY_ACTIVE",
        "category": "Environmental & Green Space"
      }
    },
    {
      "type": "Feature",
      "geometry": {
        "type": "Point",
        "coordinates": [
          -87.61904142967757,
          41.81982466441102
        ]
      },
      "properties": {
        "group_id": "lake-meadows-park-advisory-council",
        "name": "Lake Meadows Park Advisory Council",
        "location_name": "Neighbourhood Centroid",
        "address": "Bronzeville",
        "verification_status": "UNCERTAIN",
        "category": "Environmental & Green Space"
      }
    },
    {
      "type": "Feature",
      "geometry": {
        "type": "Point",
        "coordinates": [
          -87.6183131863049,
          41.82331253574392
        ]
      },
      "properties": {
        "group_id": "mouse-arts-letters-social-club",
        "name": "Mouse Arts & Letters Social Club",
        "location_name": "Neighbourhood Centroid",
        "address": "Bronzeville",
        "verification_status": "UNCERTAIN",
        "category": "Arts & Culture"
      }
    },
    {
      "type": "Feature",
      "geometry": {
        "type": "Point",
        "coordinates": [
          -87.70481641518671,
          41.942370425548894
        ]
      },
      "properties": {
        "group_id": "avondale-mutual-aid",
        "name": "Avondale Mutual Aid",
        "location_name": "Neighbourhood Centroid",
        "address": "Avondale",
        "verification_status": "VERIFIED",
        "category": "Mutual Aid - General"
      }
    },
    {
      "type": "Feature",
      "geometry": {
        "type": "Point",
        "coordinates": [
          -87.6593260704285,
          41.99009795472646
        ]
      },
      "properties": {
        "group_id": "edgewater-mutual-aid-eman",
        "name": "Edgewater Mutual Aid (EMAN)",
        "location_name": "Neighbourhood Centroid",
        "address": "Edgewater",
        "verification_status": "VERIFIED",
        "category": "Mutual Aid - General"
      }
    },
    {
      "type": "Feature",
      "geometry": {
        "type": "Point",
        "coordinates": [
          -87.68533172918639,
          42.045925402091946
        ]
      },
      "properties": {
        "group_id": "evanston-community-fridges",
        "name": "Evanston Community Fridges",
        "location_name": "Neighbourhood Centroid",
        "address": "Evanston",
        "verification_status": "VERIFIED",
        "category": "Food Security"
      }
    },
    {
      "type": "Feature",
      "geometry": {
        "type": "Point",
        "coordinates": [
          -87.70528135087174,
          41.921062839249124
        ]
      },
      "properties": {
        "group_id": "logan-square-mutual-aid",
        "name": "Logan Square Mutual Aid",
        "location_name": "Neighbourhood Centroid",
        "address": "Logan Square",
        "verification_status": "VERIFIED",
        "category": "Mutual Aid - General"
      }
    },
    {
      "type": "Feature",
      "geometry": {
        "type": "Point",
        "coordinates": [
          -87.66450226363966,
          41.85205149711803
        ]
      },
      "properties": {
        "group_id": "pilsen-solidarity-network",
        "name": "Pilsen Solidarity Network",
        "location_name": "Neighbourhood Centroid",
        "address": "Pilsen",
        "verification_status": "VERIFIED",
        "category": "Mutual Aid - General"
      }
    },
    {
      "type": "Feature",
      "geometry": {
        "type": "Point",
        "coordinates": [
          -87.76596976045191,
          41.899341959429655
        ]
      },
      "properties": {
        "group_id": "westside-mutual-aid",
        "name": "Westside Mutual Aid",
        "location_name": "Neighbourhood Centroid",
        "address": "Austin",
        "verification_status": "VERIFIED",
        "category": "Mutual Aid - General"
      }
    },
    {
      "type": "Feature",
      "geometry": {
        "type": "Point",
        "coordinates": [
          -87.72695452639802,
          41.9674176177847
        ]
      },
      "properties": {
        "group_id": "albany-park-mutual-aid",
        "name": "Albany Park Mutual Aid",
        "location_name": "Neighbourhood Centroid",
        "address": "Albany Park",
        "verification_status": "VERIFIED",
        "category": "Mutual Aid - General"
      }
    },
    {
      "type": "Feature",
      "geometry": {
        "type": "Point",
        "coordinates": [
          -87.72165240758805,
          41.900069641365306
        ]
      },
      "properties": {
        "group_id": "hp-solidarity-network",
        "name": "HP Solidarity Network",
        "location_name": "Neighbourhood Centroid",
        "address": "Humboldt Park",
        "verification_status": "VERIFIED",
        "category": "Mutual Aid - General"
      }
    },
    {
      "type": "Feature",
      "geometry": {
        "type": "Point",
        "coordinates": [
          -87.72467329927068,
          41.9562715533596
        ]
      },
      "properties": {
        "group_id": "irving-park-mutual-aid",
        "name": "Irving Park Mutual Aid",
        "location_name": "Neighbourhood Centroid",
        "address": "Irving Park",
        "verification_status": "VERIFIED",
        "category": "Mutual Aid - General"
      }
    },
    {
      "type": "Feature",
      "geometry": {
        "type": "Point",
        "coordinates": [
          -87.75139520897264,
          41.9710809094999
        ]
      },
      "properties": {
        "group_id": "mayfair-mutual-aid",
        "name": "Mayfair Mutual Aid",
        "location_name": "Neighbourhood Centroid",
        "address": "Mayfair",
        "verification_status": "VERIFIED",
        "category": "Mutual Aid - General"
      }
    },
    {
      "type": "Feature",
      "geometry": {
        "type": "Point",
        "coordinates": [
          -87.66376294840593,
          41.99877721220651
        ]
      },
      "properties": {
        "group_id": "po-box-collective",
        "name": "PO Box Collective",
        "location_name": "Neighbourhood Centroid",
        "address": "Rogers Park",
        "verification_status": "VERIFIED",
        "category": "Social Justice"
      }
    },
    {
      "type": "Feature",
      "geometry": {
        "type": "Point",
        "coordinates": [
          -87.62102132964903,
          41.76003573514184
        ]
      },
      "properties": {
        "group_id": "southside-together",
        "name": "Southside Together",
        "location_name": "Neighbourhood Centroid",
        "address": "South Side",
        "verification_status": "VERIFIED",
        "category": "Social Justice"
      }
    },
    {
      "type": "Feature",
      "geometry": {
        "type": "Point",
        "coordinates": [
          -87.73853951910351,
          41.88215628817524
        ]
      },
      "properties": {
        "group_id": "southwest-collective",
        "name": "Southwest Collective",
        "location_name": "Neighbourhood Centroid",
        "address": "Southwest Side",
        "verification_status": "VERIFIED",
        "category": "Community Advocacy"
      }
    },
    {
      "type": "Feature",
      "geometry": {
        "type": "Point",
        "coordinates": [
          -87.61870667106201,
          41.75975465519609
        ]
      },
      "properties": {
        "group_id": "brave-space-alliance",
        "name": "Brave Space Alliance",
        "location_name": "Neighbourhood Centroid",
        "address": "South Side",
        "verification_status": "VERIFIED",
        "category": "Healthcare & Wellness"
      }
    },
    {
      "type": "Feature",
      "geometry": {
        "type": "Point",
        "coordinates": [
          -87.6212492796918,
          41.75966568921434
        ]
      },
      "properties": {
        "group_id": "chicago-united-solidarity-project-cusp",
        "name": "Chicago United Solidarity Project (CUSP)",
        "location_name": "Neighbourhood Centroid",
        "address": "South Side",
        "verification_status": "VERIFIED",
        "category": "Mutual Aid - General"
      }
    },
    {
      "type": "Feature",
      "geometry": {
        "type": "Point",
        "coordinates": [
          -87.65988175330813,
          41.97139096446282
        ]
      },
      "properties": {
        "group_id": "chinese-mutual-aid-association-cmaa",
        "name": "Chinese Mutual Aid Association (CMAA)",
        "location_name": "Neighbourhood Centroid",
        "address": "Uptown/Argyle",
        "verification_status": "VERIFIED",
        "category": "Migrant & Immigrant Support"
      }
    },
    {
      "type": "Feature",
      "geometry": {
        "type": "Point",
        "coordinates": [
          -87.6197597974535,
          41.76190363556485
        ]
      },
      "properties": {
        "group_id": "market-box-chicago",
        "name": "Market Box Chicago",
        "location_name": "Neighbourhood Centroid",
        "address": "South Side",
        "verification_status": "VERIFIED",
        "category": "Food Security"
      }
    },
    {
      "type": "Feature",
      "geometry": {
        "type": "Point",
        "coordinates": [
          -87.65053868745191,
          41.94457149468233
        ]
      },
      "properties": {
        "group_id": "lakeview-lincoln-park-mutual-aid",
        "name": "Lakeview/Lincoln Park Mutual Aid",
        "location_name": "Neighbourhood Centroid",
        "address": "Lakeview",
        "verification_status": "VERIFIED",
        "category": "Mutual Aid - General"
      }
    },
    {
      "type": "Feature",
      "geometry": {
        "type": "Point",
        "coordinates": [
          -87.73775552638035,
          41.88124870710684
        ]
      },
      "properties": {
        "group_id": "northwest-side-solidarity-network",
        "name": "Northwest Side Solidarity Network",
        "location_name": "Neighbourhood Centroid",
        "address": "Northwest Side",
        "verification_status": "VERIFIED",
        "category": "Mutual Aid - General"
      }
    },
    {
      "type": "Feature",
      "geometry": {
        "type": "Point",
        "coordinates": [
          -87.66420692269222,
          41.99915170895507
        ]
      },
      "properties": {
        "group_id": "one-northside",
        "name": "ONE Northside",
        "location_name": "Neighbourhood Centroid",
        "address": "Rogers Park",
        "verification_status": "VERIFIED",
        "category": "Community Advocacy"
      }
    },
    {
      "type": "Feature",
      "geometry": {
        "type": "Point",
        "coordinates": [
          -87.71727456240053,
          41.88446458724784
        ]
      },
      "properties": {
        "group_id": "garfield-park-community-council",
        "name": "Garfield Park Community Council",
        "location_name": "Neighbourhood Centroid",
        "address": "Garfield Park",
        "verification_status": "VERIFIED",
        "category": "Food Security / Community Development"
      }
    },
    {
      "type": "Feature",
      "geometry": {
        "type": "Point",
        "coordinates": [
          -87.73996089818596,
          41.88404940291422
        ]
      },
      "properties": {
        "group_id": "john-walt-foundation",
        "name": "John Walt Foundation",
        "location_name": "Neighbourhood Centroid",
        "address": "West Side",
        "verification_status": "VERIFIED",
        "category": "Food Security"
      }
    },
    {
      "type": "Feature",
      "geometry": {
        "type": "Point",
        "coordinates": [
          -87.64681049350541,
          41.94629831155296
        ]
      },
      "properties": {
        "group_id": "center-on-halsted",
        "name": "Center on Halsted",
        "location_name": "Neighbourhood Centroid",
        "address": "Lakeview",
        "verification_status": "VERIFIED",
        "category": "LGBTQ+ Support"
      }
    },
    {
      "type": "Feature",
      "geometry": {
        "type": "Point",
        "coordinates": [
          -87.7384123572733,
          41.88319720071041
        ]
      },
      "properties": {
        "group_id": "chicago-environmental-justice-network-cejn",
        "name": "Chicago Environmental Justice Network (CEJN)",
        "location_name": "Neighbourhood Centroid",
        "address": "South and West Sides",
        "verification_status": "VERIFIED",
        "category": "Environmental Justice"
      }
    },
    {
      "type": "Feature",
      "geometry": {
        "type": "Point",
        "coordinates": [
          -87.74243451274089,
          41.88444469017752
        ]
      },
      "properties": {
        "group_id": "sarah-s-inn",
        "name": "Sarah's Inn",
        "location_name": "Neighbourhood Centroid",
        "address": "West Side",
        "verification_status": "VERIFIED",
        "category": "Domestic Violence Support"
      }
    },
    {
      "type": "Feature",
      "geometry": {
        "type": "Point",
        "coordinates": [
          -87.76748354293039,
          41.89933839854738
        ]
      },
      "properties": {
        "group_id": "westside-community-development-collaboration",
        "name": "Westside Community Development Collaboration",
        "location_name": "Neighbourhood Centroid",
        "address": "Austin",
        "verification_status": "VERIFIED",
        "category": "Community Development"
      }
    },
    {
      "type": "Feature",
      "geometry": {
        "type": "Point",
        "coordinates": [
          -87.59469022791875,
          41.79490488373967
        ]
      },
      "properties": {
        "group_id": "uchrp-u-of-chicago-harm-reduction-project",
        "name": "UCHRP (U of Chicago Harm Reduction Project)",
        "location_name": "Neighbourhood Centroid",
        "address": "Hyde Park / South Side",
        "verification_status": "VERIFIED",
        "category": "Harm Reduction"
      }
    },
    {
      "type": "Feature",
      "geometry": {
        "type": "Point",
        "coordinates": [
          -87.65709798337755,
          41.97477036601148
        ]
      },
      "properties": {
        "group_id": "american-indian-center-chicago",
        "name": "American Indian Center Chicago",
        "location_name": "Neighbourhood Centroid",
        "address": "Uptown / Citywide",
        "verification_status": "VERIFIED",
        "category": "Indigenous Solidarity"
      }
    },
    {
      "type": "Feature",
      "geometry": {
        "type": "Point",
        "coordinates": [
          -87.59512826094291,
          41.79458058394465
        ]
      },
      "properties": {
        "group_id": "hyde-park-art-center",
        "name": "Hyde Park Art Center",
        "location_name": "Neighbourhood Centroid",
        "address": "Hyde Park",
        "verification_status": "VERIFIED",
        "category": "Arts & Culture"
      }
    },
    {
      "type": "Feature",
      "geometry": {
        "type": "Point",
        "coordinates": [
          -87.61961297052157,
          41.693251439664756
        ]
      },
      "properties": {
        "group_id": "roseland-ceasefire",
        "name": "Roseland Ceasefire",
        "location_name": "Neighbourhood Centroid",
        "address": "Roseland",
        "verification_status": "VERIFIED",
        "category": "Community Advocacy"
      }
    },
    {
      "type": "Feature",
      "geometry": {
        "type": "Point",
        "coordinates": [
          -87.62400272354935,
          41.69487965834151
        ]
      },
      "properties": {
        "group_id": "sheldon-heights-coc-food-pantry",
        "name": "Sheldon Heights CoC Food Pantry",
        "location_name": "Neighbourhood Centroid",
        "address": "Roseland",
        "verification_status": "VERIFIED",
        "category": "Food Security"
      }
    },
    {
      "type": "Feature",
      "geometry": {
        "type": "Point",
        "coordinates": [
          -87.66517887670236,
          41.7520075597942
        ]
      },
      "properties": {
        "group_id": "st-sabina-church-food-pantry",
        "name": "St. Sabina Church Food Pantry",
        "location_name": "Neighbourhood Centroid",
        "address": "Auburn Gresham",
        "verification_status": "VERIFIED",
        "category": "Food Security"
      }
    },
    {
      "type": "Feature",
      "geometry": {
        "type": "Point",
        "coordinates": [
          -87.68557654138446,
          42.0452805341279
        ]
      },
      "properties": {
        "group_id": "evanston-community-cares",
        "name": "Evanston Community Cares",
        "location_name": "Neighbourhood Centroid",
        "address": "Evanston",
        "verification_status": "VERIFIED",
        "category": "Mutual Aid - General"
      }
    },
    {
      "type": "Feature",
      "geometry": {
        "type": "Point",
        "coordinates": [
          -87.68884408980544,
          42.046520451156326
        ]
      },
      "properties": {
        "group_id": "evanston-skokie-mutual-aid-network",
        "name": "Evanston/Skokie Mutual Aid Network",
        "location_name": "Neighbourhood Centroid",
        "address": "Evanston",
        "verification_status": "VERIFIED",
        "category": "Mutual Aid - General"
      }
    },
    {
      "type": "Feature",
      "geometry": {
        "type": "Point",
        "coordinates": [
          -87.62152068064601,
          41.69365163068678
        ]
      },
      "properties": {
        "group_id": "greater-roseland-west-pullman-food-network",
        "name": "Greater Roseland West Pullman Food Network",
        "location_name": "Neighbourhood Centroid",
        "address": "Roseland",
        "verification_status": "VERIFIED",
        "category": "Food Security"
      }
    },
    {
      "type": "Feature",
      "geometry": {
        "type": "Point",
        "coordinates": [
          -87.6608071335285,
          41.75243452987156
        ]
      },
      "properties": {
        "group_id": "target-area-development-corporation",
        "name": "Target Area Development Corporation",
        "location_name": "Neighbourhood Centroid",
        "address": "Auburn Gresham",
        "verification_status": "VERIFIED",
        "category": "Food Security"
      }
    },
    {
      "type": "Feature",
      "geometry": {
        "type": "Point",
        "coordinates": [
          -87.66513023775626,
          41.748694483198285
        ]
      },
      "properties": {
        "group_id": "greater-auburn-gresham-development-corporation-gagdc",
        "name": "Greater Auburn Gresham Development Corporation (GAGDC)",
        "location_name": "Neighbourhood Centroid",
        "address": "Auburn Gresham",
        "verification_status": "VERIFIED",
        "category": "Community Development"
      }
    },
    {
      "type": "Feature",
      "geometry": {
        "type": "Point",
        "coordinates": [
          -87.62124136308334,
          41.69194707180432
        ]
      },
      "properties": {
        "group_id": "youth-peace-center-of-roseland",
        "name": "Youth Peace Center of Roseland",
        "location_name": "Neighbourhood Centroid",
        "address": "Roseland",
        "verification_status": "VERIFIED",
        "category": "Youth & Education"
      }
    },
    {
      "type": "Feature",
      "geometry": {
        "type": "Point",
        "coordinates": [
          -87.62404920774635,
          41.69136588126282
        ]
      },
      "properties": {
        "group_id": "peaceplayers-chicago",
        "name": "PeacePlayers Chicago",
        "location_name": "Neighbourhood Centroid",
        "address": "Roseland",
        "verification_status": "VERIFIED",
        "category": "Youth & Education"
      }
    },
    {
      "type": "Feature",
      "geometry": {
        "type": "Point",
        "coordinates": [
          -87.59436309866105,
          41.77319873896036
        ]
      },
      "properties": {
        "group_id": "southside-nature-play",
        "name": "Southside Nature Play",
        "location_name": "Neighbourhood Centroid",
        "address": "Woodlawn",
        "verification_status": "LIKELY_ACTIVE",
        "category": "Environmental & Green Space"
      }
    },
    {
      "type": "Feature",
      "geometry": {
        "type": "Point",
        "coordinates": [
          -87.65864234975761,
          41.98755688179481
        ]
      },
      "properties": {
        "group_id": "edgewater-mutual-aid-group",
        "name": "Edgewater Mutual Aid Group",
        "location_name": "Neighbourhood Centroid",
        "address": "Edgewater",
        "verification_status": "LIKELY_ACTIVE",
        "category": "General Mutual Aid / Food & Essentials"
      }
    },
    {
      "type": "Feature",
      "geometry": {
        "type": "Point",
        "coordinates": [
          -87.70641486135224,
          41.91949756141787
        ]
      },
      "properties": {
        "group_id": "el-rbol",
        "name": "El \u00c1rbol",
        "location_name": "Neighbourhood Centroid",
        "address": "Logan Square",
        "verification_status": "LIKELY_ACTIVE",
        "category": "Migrant Support / Free Store"
      }
    },
    {
      "type": "Feature",
      "geometry": {
        "type": "Point",
        "coordinates": [
          -87.66179503075196,
          41.85654977096135
        ]
      },
      "properties": {
        "group_id": "femme-defensa",
        "name": "Femme Defensa",
        "location_name": "Neighbourhood Centroid",
        "address": "Pilsen / Little Village",
        "verification_status": "VERIFIED",
        "category": "Gender-Based Violence / Food & Housing"
      }
    },
    {
      "type": "Feature",
      "geometry": {
        "type": "Point",
        "coordinates": [
          -87.66050429918674,
          41.99896028606825
        ]
      },
      "properties": {
        "group_id": "food-not-bombs-chicago-rogers-park",
        "name": "Food Not Bombs Chicago \u2013 Rogers Park",
        "location_name": "Neighbourhood Centroid",
        "address": "Rogers Park",
        "verification_status": "VERIFIED",
        "category": "Food Recovery / Distribution"
      }
    },
    {
      "type": "Feature",
      "geometry": {
        "type": "Point",
        "coordinates": [
          -87.64775323962154,
          41.77439941645863
        ]
      },
      "properties": {
        "group_id": "getting-grown-collective-food-farm-familias",
        "name": "Getting Grown Collective \u2013 Food, Farm, Familias",
        "location_name": "Neighbourhood Centroid",
        "address": "Little Village / Englewood / South Chicago",
        "verification_status": "VERIFIED",
        "category": "Food Justice / Urban Agriculture"
      }
    },
    {
      "type": "Feature",
      "geometry": {
        "type": "Point",
        "coordinates": [
          -87.72217002378369,
          41.899629208092726
        ]
      },
      "properties": {
        "group_id": "humboldt-park-solidarity-network",
        "name": "Humboldt Park Solidarity Network",
        "location_name": "Neighbourhood Centroid",
        "address": "Humboldt Park",
        "verification_status": "LIKELY_ACTIVE",
        "category": "General Mutual Aid / Food & Essentials"
      }
    },
    {
      "type": "Feature",
      "geometry": {
        "type": "Point",
        "coordinates": [
          -87.64913675427354,
          41.94342240835765
        ]
      },
      "properties": {
        "group_id": "lakeview-lincoln-park-mutual-aid-network",
        "name": "Lakeview / Lincoln Park Mutual Aid Network",
        "location_name": "Neighbourhood Centroid",
        "address": "Lakeview / Lincoln Park",
        "verification_status": "UNCERTAIN",
        "category": "General Mutual Aid / Food & Essentials"
      }
    },
    {
      "type": "Feature",
      "geometry": {
        "type": "Point",
        "coordinates": [
          -87.74141915650966,
          41.88000228123177
        ]
      },
      "properties": {
        "group_id": "lil-miracles-mutual-aid-360-nation",
        "name": "Lil' Miracles Mutual Aid (360 Nation)",
        "location_name": "Neighbourhood Centroid",
        "address": "West Side",
        "verification_status": "LIKELY_ACTIVE",
        "category": "General Mutual Aid / Youth & Family"
      }
    },
    {
      "type": "Feature",
      "geometry": {
        "type": "Point",
        "coordinates": [
          -87.71969055578214,
          41.90089188744814
        ]
      },
      "properties": {
        "group_id": "lolitas-bodega",
        "name": "Lolitas Bodega",
        "location_name": "Neighbourhood Centroid",
        "address": "Humboldt Park",
        "verification_status": "VERIFIED",
        "category": "Food & Essentials / Community Care"
      }
    },
    {
      "type": "Feature",
      "geometry": {
        "type": "Point",
        "coordinates": [
          -87.59063888541121,
          41.77271527358834
        ]
      },
      "properties": {
        "group_id": "market-box",
        "name": "Market Box",
        "location_name": "Neighbourhood Centroid",
        "address": "Woodlawn / South Side",
        "verification_status": "VERIFIED",
        "category": "Food Justice / Farm Share Distribution"
      }
    },
    {
      "type": "Feature",
      "geometry": {
        "type": "Point",
        "coordinates": [
          -87.66116835491704,
          41.85232059349695
        ]
      },
      "properties": {
        "group_id": "pilsen-social-health-initiative",
        "name": "Pilsen Social Health Initiative",
        "location_name": "Neighbourhood Centroid",
        "address": "Pilsen",
        "verification_status": "VERIFIED",
        "category": "General Mutual Aid / Food & Health"
      }
    },
    {
      "type": "Feature",
      "geometry": {
        "type": "Point",
        "coordinates": [
          -87.72708689215227,
          41.97036161974641
        ]
      },
      "properties": {
        "group_id": "pueblo-unido-albany-park",
        "name": "Pueblo Unido Albany Park",
        "location_name": "Neighbourhood Centroid",
        "address": "Albany Park",
        "verification_status": "LIKELY_ACTIVE",
        "category": "Immigrant Support / General Mutual Aid"
      }
    },
    {
      "type": "Feature",
      "geometry": {
        "type": "Point",
        "coordinates": [
          -87.64429657022767,
          41.773111050709595
        ]
      },
      "properties": {
        "group_id": "resident-association-of-greater-englewood-r-a-g-e",
        "name": "Resident Association of Greater Englewood (R.A.G.E.)",
        "location_name": "Neighbourhood Centroid",
        "address": "Englewood",
        "verification_status": "VERIFIED",
        "category": "Community Organizing / Mutual Aid"
      }
    },
    {
      "type": "Feature",
      "geometry": {
        "type": "Point",
        "coordinates": [
          -87.66131920366966,
          41.99738296811291
        ]
      },
      "properties": {
        "group_id": "rogers-park-free-store",
        "name": "Rogers Park Free Store",
        "location_name": "Neighbourhood Centroid",
        "address": "Rogers Park",
        "verification_status": "VERIFIED",
        "category": "Free Store / Basic Needs"
      }
    },
    {
      "type": "Feature",
      "geometry": {
        "type": "Point",
        "coordinates": [
          -87.62107143027072,
          41.76054864463792
        ]
      },
      "properties": {
        "group_id": "adler-planetarium",
        "name": "Adler Planetarium",
        "location_name": "Neighbourhood Centroid",
        "address": "Near South Side (Museum Campus)",
        "verification_status": "VERIFIED",
        "category": "Museum"
      }
    },
    {
      "type": "Feature",
      "geometry": {
        "type": "Point",
        "coordinates": [
          -87.61979547884773,
          41.76222327177405
        ]
      },
      "properties": {
        "group_id": "field-museum",
        "name": "Field Museum",
        "location_name": "Neighbourhood Centroid",
        "address": "Near South Side (Museum Campus)",
        "verification_status": "VERIFIED",
        "category": "Museum"
      }
    },
    {
      "type": "Feature",
      "geometry": {
        "type": "Point",
        "coordinates": [
          -87.65803772020094,
          41.97031474281643
        ]
      },
      "properties": {
        "group_id": "museum-of-contemporary-art-mca-chicago",
        "name": "Museum of Contemporary Art (MCA) Chicago",
        "location_name": "Neighbourhood Centroid",
        "address": "Near North Side / Streeterville",
        "verification_status": "VERIFIED",
        "category": "Museum"
      }
    },
    {
      "type": "Feature",
      "geometry": {
        "type": "Point",
        "coordinates": [
          -87.61810232809668,
          41.76136923560895
        ]
      },
      "properties": {
        "group_id": "shedd-aquarium",
        "name": "Shedd Aquarium",
        "location_name": "Neighbourhood Centroid",
        "address": "Near South Side (Museum Campus)",
        "verification_status": "VERIFIED",
        "category": "Museum / Aquarium"
      }
    },
    {
      "type": "Feature",
      "geometry": {
        "type": "Point",
        "coordinates": [
          -87.64981527270002,
          41.94508387470424
        ]
      },
      "properties": {
        "group_id": "stage-773",
        "name": "Stage 773",
        "location_name": "Neighbourhood Centroid",
        "address": "Lakeview",
        "verification_status": "INACTIVE",
        "category": "Theater"
      }
    },
    {
      "type": "Feature",
      "geometry": {
        "type": "Point",
        "coordinates": [
          -87.66445847977342,
          41.99977534462016
        ]
      },
      "properties": {
        "group_id": "american-indian-association-of-illinois-aiai",
        "name": "American Indian Association of Illinois (AIAI)",
        "location_name": "Neighbourhood Centroid",
        "address": "Rogers Park",
        "verification_status": "VERIFIED",
        "category": "Education & Youth Services"
      }
    },
    {
      "type": "Feature",
      "geometry": {
        "type": "Point",
        "coordinates": [
          -87.72461235291449,
          41.96948798492274
        ]
      },
      "properties": {
        "group_id": "american-indian-center-of-chicago-aic",
        "name": "American Indian Center of Chicago (AIC)",
        "location_name": "Neighbourhood Centroid",
        "address": "Albany Park",
        "verification_status": "VERIFIED",
        "category": "Cultural Center & Community Hub"
      }
    },
    {
      "type": "Feature",
      "geometry": {
        "type": "Point",
        "coordinates": [
          -87.72554913949402,
          41.968163114513665
        ]
      },
      "properties": {
        "group_id": "american-indian-health-service-of-chicago-aihsc",
        "name": "American Indian Health Service of Chicago (AIHSC)",
        "location_name": "Neighbourhood Centroid",
        "address": "Albany Park",
        "verification_status": "VERIFIED",
        "category": "Indigenous Healthcare & Behavioral Health"
      }
    },
    {
      "type": "Feature",
      "geometry": {
        "type": "Point",
        "coordinates": [
          -87.72938675292488,
          41.96935729938245
        ]
      },
      "properties": {
        "group_id": "chi-nations-youth-council-cnyc",
        "name": "Chi-Nations Youth Council (CNYC)",
        "location_name": "Neighbourhood Centroid",
        "address": "Albany Park / Citywide",
        "verification_status": "VERIFIED",
        "category": "Youth Activism & Cultural Preservation"
      }
    },
    {
      "type": "Feature",
      "geometry": {
        "type": "Point",
        "coordinates": [
          -87.72911165738373,
          41.96777200930315
        ]
      },
      "properties": {
        "group_id": "first-nations-garden",
        "name": "First Nations Garden",
        "location_name": "Neighbourhood Centroid",
        "address": "Albany Park",
        "verification_status": "VERIFIED",
        "category": "Land Stewardship & Environmental Justice"
      }
    },
    {
      "type": "Feature",
      "geometry": {
        "type": "Point",
        "coordinates": [
          -87.68936184324563,
          42.042643862954705
        ]
      },
      "properties": {
        "group_id": "gichigamiin-indigenous-nations-museum",
        "name": "Gichigamiin Indigenous Nations Museum",
        "location_name": "Neighbourhood Centroid",
        "address": "Evanston (Chicago Metro)",
        "verification_status": "VERIFIED",
        "category": "Museum & Cultural Education"
      }
    },
    {
      "type": "Feature",
      "geometry": {
        "type": "Point",
        "coordinates": [
          -87.65897108769728,
          41.971048440578905
        ]
      },
      "properties": {
        "group_id": "indigenous-chicago",
        "name": "Indigenous Chicago",
        "location_name": "Neighbourhood Centroid",
        "address": "Near North Side (c/o Newberry Library)",
        "verification_status": "LIKELY_ACTIVE",
        "category": "Public Education & Community Mapping"
      }
    },
    {
      "type": "Feature",
      "geometry": {
        "type": "Point",
        "coordinates": [
          -87.65936722572913,
          41.971645304382626
        ]
      },
      "properties": {
        "group_id": "newberry-library-d-arcy-mcnickle-center",
        "name": "Newberry Library \u2014 D'Arcy McNickle Center",
        "location_name": "Neighbourhood Centroid",
        "address": "Near North Side (Gold Coast)",
        "verification_status": "VERIFIED",
        "category": "Research & Cultural Archives"
      }
    },
    {
      "type": "Feature",
      "geometry": {
        "type": "Point",
        "coordinates": [
          -87.65127420609264,
          41.94173539223747
        ]
      },
      "properties": {
        "group_id": "saint-kateri-center-of-chicago",
        "name": "Saint Kateri Center of Chicago",
        "location_name": "Neighbourhood Centroid",
        "address": "Lakeview / North Center",
        "verification_status": "LIKELY_ACTIVE",
        "category": "Spiritual Community & Cultural Preservation"
      }
    },
    {
      "type": "Feature",
      "geometry": {
        "type": "Point",
        "coordinates": [
          -87.73782988124317,
          41.88248397787079
        ]
      },
      "properties": {
        "group_id": "big-brothers-big-sisters-of-metropolitan-chicago",
        "name": "Big Brothers Big Sisters of Metropolitan Chicago",
        "location_name": "Neighbourhood Centroid",
        "address": "Near West Side (citywide programs)",
        "verification_status": "VERIFIED",
        "category": "Youth Mentoring"
      }
    },
    {
      "type": "Feature",
      "geometry": {
        "type": "Point",
        "coordinates": [
          -87.65117966324185,
          41.83245731666152
        ]
      },
      "properties": {
        "group_id": "chicago-arts-partnerships-in-education-cape",
        "name": "Chicago Arts Partnerships in Education (CAPE)",
        "location_name": "Neighbourhood Centroid",
        "address": "Bridgeport / Near South Side",
        "verification_status": "VERIFIED",
        "category": "Arts-Integrated Education"
      }
    },
    {
      "type": "Feature",
      "geometry": {
        "type": "Point",
        "coordinates": [
          -87.64399945476389,
          41.7743350725993
        ]
      },
      "properties": {
        "group_id": "chicago-hopes-for-kids",
        "name": "Chicago HOPES for Kids",
        "location_name": "Neighbourhood Centroid",
        "address": "Englewood / South Side",
        "verification_status": "VERIFIED",
        "category": "Youth Education & Tutoring / Homeless Youth"
      }
    },
    {
      "type": "Feature",
      "geometry": {
        "type": "Point",
        "coordinates": [
          -87.66161421310221,
          41.96778300365834
        ]
      },
      "properties": {
        "group_id": "chicago-lights-tutoring",
        "name": "Chicago Lights Tutoring",
        "location_name": "Neighbourhood Centroid",
        "address": "Gold Coast / Near North Side",
        "verification_status": "VERIFIED",
        "category": "Youth Tutoring & Mentorship"
      }
    },
    {
      "type": "Feature",
      "geometry": {
        "type": "Point",
        "coordinates": [
          -87.59080368796035,
          41.775789165564916
        ]
      },
      "properties": {
        "group_id": "project-exploration",
        "name": "Project Exploration",
        "location_name": "Neighbourhood Centroid",
        "address": "Woodlawn / South Side",
        "verification_status": "VERIFIED",
        "category": "STEM Science Education / Youth Development"
      }
    },
    {
      "type": "Feature",
      "geometry": {
        "type": "Point",
        "coordinates": [
          -87.65285298140508,
          41.82895043886225
        ]
      },
      "properties": {
        "group_id": "project-vision",
        "name": "Project: VISION",
        "location_name": "Neighbourhood Centroid",
        "address": "Chinatown / Bridgeport",
        "verification_status": "VERIFIED",
        "category": "Youth Education & Leadership / API Community"
      }
    },
    {
      "type": "Feature",
      "geometry": {
        "type": "Point",
        "coordinates": [
          -87.64877997643613,
          41.94376339666501
        ]
      },
      "properties": {
        "group_id": "sitstayread",
        "name": "SitStayRead",
        "location_name": "Neighbourhood Centroid",
        "address": "Lakeview (HQ; programs citywide)",
        "verification_status": "VERIFIED",
        "category": "Canine-Assisted Youth Literacy"
      }
    },
    {
      "type": "Feature",
      "geometry": {
        "type": "Point",
        "coordinates": [
          -87.71806793721309,
          41.88120148348133
        ]
      },
      "properties": {
        "group_id": "garfield-park-conservatory-alliance",
        "name": "Garfield Park Conservatory Alliance",
        "location_name": "Neighbourhood Centroid",
        "address": "East Garfield Park",
        "verification_status": "VERIFIED",
        "category": "Botanical Garden/Education"
      }
    },
    {
      "type": "Feature",
      "geometry": {
        "type": "Point",
        "coordinates": [
          -87.5949021924816,
          41.772345159438856
        ]
      },
      "properties": {
        "group_id": "phoenix-sustainability-initiative",
        "name": "Phoenix Sustainability Initiative",
        "location_name": "Neighbourhood Centroid",
        "address": "Hyde Park / Woodlawn",
        "verification_status": "VERIFIED",
        "category": "Community Garden & Environmental Education"
      }
    },
    {
      "type": "Feature",
      "geometry": {
        "type": "Point",
        "coordinates": [
          -87.65801463673478,
          41.990577292311855
        ]
      },
      "properties": {
        "group_id": "peterson-garden-project",
        "name": "Peterson Garden Project",
        "location_name": "Neighbourhood Centroid",
        "address": "Edgewater / Citywide",
        "verification_status": "STALE",
        "category": "Community/Victory Gardens"
      }
    },
    {
      "type": "Feature",
      "geometry": {
        "type": "Point",
        "coordinates": [
          -87.64480239416912,
          41.77462068108135
        ]
      },
      "properties": {
        "group_id": "growing-home",
        "name": "Growing Home",
        "location_name": "Neighbourhood Centroid",
        "address": "Englewood",
        "verification_status": "VERIFIED",
        "category": "Urban Agriculture/Job Training"
      }
    },
    {
      "type": "Feature",
      "geometry": {
        "type": "Point",
        "coordinates": [
          -87.6626452191181,
          41.99956996024377
        ]
      },
      "properties": {
        "group_id": "cje-seniorlife",
        "name": "CJE SeniorLife",
        "location_name": "Neighbourhood Centroid",
        "address": "West Rogers Park",
        "verification_status": "VERIFIED",
        "category": "Senior Meal Delivery"
      }
    },
    {
      "type": "Feature",
      "geometry": {
        "type": "Point",
        "coordinates": [
          -87.66138443321022,
          41.99598317042043
        ]
      },
      "properties": {
        "group_id": "care-for-real",
        "name": "Care for Real",
        "location_name": "Neighbourhood Centroid",
        "address": "Rogers Park",
        "verification_status": "VERIFIED",
        "category": "Food Pantry"
      }
    },
    {
      "type": "Feature",
      "geometry": {
        "type": "Point",
        "coordinates": [
          -87.60493367208744,
          41.75216651722435
        ]
      },
      "properties": {
        "group_id": "chatham-avalon-ministries-inc",
        "name": "Chatham-Avalon Ministries Inc.",
        "location_name": "Neighbourhood Centroid",
        "address": "Chatham",
        "verification_status": "LIKELY_ACTIVE",
        "category": "Food Pantry"
      }
    },
    {
      "type": "Feature",
      "geometry": {
        "type": "Point",
        "coordinates": [
          -87.66537466097132,
          41.99690399438911
        ]
      },
      "properties": {
        "group_id": "ezra-multi-service-center",
        "name": "EZRA Multi-Service Center",
        "location_name": "Neighbourhood Centroid",
        "address": "West Rogers Park",
        "verification_status": "VERIFIED",
        "category": "Food Pantry / Social Services"
      }
    },
    {
      "type": "Feature",
      "geometry": {
        "type": "Point",
        "coordinates": [
          -87.72591824773706,
          41.9707185329426
        ]
      },
      "properties": {
        "group_id": "friendship-center-chicago",
        "name": "Friendship Center Chicago",
        "location_name": "Neighbourhood Centroid",
        "address": "Albany Park / Northwest Side",
        "verification_status": "VERIFIED",
        "category": "Food Pantry / Soup Kitchen"
      }
    },
    {
      "type": "Feature",
      "geometry": {
        "type": "Point",
        "coordinates": [
          -87.65002423430538,
          41.94634767075533
        ]
      },
      "properties": {
        "group_id": "lakeview-pantry-nourishing-hope",
        "name": "Lakeview Pantry / Nourishing Hope",
        "location_name": "Neighbourhood Centroid",
        "address": "Lakeview / Uptown",
        "verification_status": "VERIFIED",
        "category": "Food Pantry / Social Services"
      }
    },
    {
      "type": "Feature",
      "geometry": {
        "type": "Point",
        "coordinates": [
          -87.73806431613876,
          41.88216894629975
        ]
      },
      "properties": {
        "group_id": "marillac-house-food-pantry",
        "name": "Marillac House Food Pantry",
        "location_name": "Neighbourhood Centroid",
        "address": "Near West Side",
        "verification_status": "VERIFIED",
        "category": "Food Pantry"
      }
    },
    {
      "type": "Feature",
      "geometry": {
        "type": "Point",
        "coordinates": [
          -87.66134087757739,
          41.854989808484326
        ]
      },
      "properties": {
        "group_id": "pilsen-food-pantry",
        "name": "Pilsen Food Pantry",
        "location_name": "Neighbourhood Centroid",
        "address": "Pilsen",
        "verification_status": "VERIFIED",
        "category": "Food Pantry"
      }
    },
    {
      "type": "Feature",
      "geometry": {
        "type": "Point",
        "coordinates": [
          -87.66180390878262,
          41.85270537868863
        ]
      },
      "properties": {
        "group_id": "providence-soup-kitchen-daughters-of-st-mary-of-providence",
        "name": "Providence Soup Kitchen (Daughters of St. Mary of Providence)",
        "location_name": "Neighbourhood Centroid",
        "address": "Pilsen",
        "verification_status": "LIKELY_ACTIVE",
        "category": "Soup Kitchen"
      }
    },
    {
      "type": "Feature",
      "geometry": {
        "type": "Point",
        "coordinates": [
          -87.66164187366964,
          41.96826566807286
        ]
      },
      "properties": {
        "group_id": "ronald-mcdonald-house-charities-of-chicagoland-nw-indiana",
        "name": "Ronald McDonald House Charities of Chicagoland & NW Indiana",
        "location_name": "Neighbourhood Centroid",
        "address": "Streeterville / Near North Side",
        "verification_status": "VERIFIED",
        "category": "Meal Preparation"
      }
    },
    {
      "type": "Feature",
      "geometry": {
        "type": "Point",
        "coordinates": [
          -87.61813020099389,
          41.75877036977027
        ]
      },
      "properties": {
        "group_id": "st-cyprian-food-pantry",
        "name": "St. Cyprian Food Pantry",
        "location_name": "Neighbourhood Centroid",
        "address": "South Side",
        "verification_status": "VERIFIED",
        "category": "Food Pantry"
      }
    },
    {
      "type": "Feature",
      "geometry": {
        "type": "Point",
        "coordinates": [
          -87.76661292424127,
          41.900036191609836
        ]
      },
      "properties": {
        "group_id": "the-boulevard-the-road-to-health-and-home",
        "name": "The Boulevard: The Road to Health and Home",
        "location_name": "Neighbourhood Centroid",
        "address": "Austin / West Side",
        "verification_status": "VERIFIED",
        "category": "Food / Social Services"
      }
    },
    {
      "type": "Feature",
      "geometry": {
        "type": "Point",
        "coordinates": [
          -87.62114216623499,
          41.76149139488336
        ]
      },
      "properties": {
        "group_id": "affinity-community-services",
        "name": "Affinity Community Services",
        "location_name": "Neighbourhood Centroid",
        "address": "Douglas/Near South Side",
        "verification_status": "VERIFIED",
        "category": "LGBTQ+ Social Justice"
      }
    },
    {
      "type": "Feature",
      "geometry": {
        "type": "Point",
        "coordinates": [
          -87.65101603565455,
          41.9434218463378
        ]
      },
      "properties": {
        "group_id": "broadway-youth-center-howard-brown-health",
        "name": "Broadway Youth Center (Howard Brown Health)",
        "location_name": "Neighbourhood Centroid",
        "address": "Lakeview",
        "verification_status": "VERIFIED",
        "category": "LGBTQ+ Youth Services"
      }
    },
    {
      "type": "Feature",
      "geometry": {
        "type": "Point",
        "coordinates": [
          -87.62157842284704,
          41.76030237325305
        ]
      },
      "properties": {
        "group_id": "chicago-house",
        "name": "Chicago House",
        "location_name": "Neighbourhood Centroid",
        "address": "Near South Side",
        "verification_status": "VERIFIED",
        "category": "HIV/AIDS Services / LGBTQ+ Housing"
      }
    },
    {
      "type": "Feature",
      "geometry": {
        "type": "Point",
        "coordinates": [
          -87.74206273398867,
          41.88022650085205
        ]
      },
      "properties": {
        "group_id": "covenant-house-illinois",
        "name": "Covenant House Illinois",
        "location_name": "Neighbourhood Centroid",
        "address": "West Side",
        "verification_status": "VERIFIED",
        "category": "LGBTQ+ Youth Services / Homeless Services"
      }
    },
    {
      "type": "Feature",
      "geometry": {
        "type": "Point",
        "coordinates": [
          -87.66093345891923,
          41.999475207035424
        ]
      },
      "properties": {
        "group_id": "circles-ciphers",
        "name": "Circles & Ciphers",
        "location_name": "Neighbourhood Centroid",
        "address": "Rogers Park",
        "verification_status": "VERIFIED",
        "category": "Restorative Justice / Youth Arts"
      }
    },
    {
      "type": "Feature",
      "geometry": {
        "type": "Point",
        "coordinates": [
          -87.6610399949448,
          41.970622781559946
        ]
      },
      "properties": {
        "group_id": "john-howard-association-of-illinois-jha",
        "name": "John Howard Association of Illinois (JHA)",
        "location_name": "Neighbourhood Centroid",
        "address": "Near North Side / Citywide",
        "verification_status": "VERIFIED",
        "category": "Prison Monitoring & Reform"
      }
    },
    {
      "type": "Feature",
      "geometry": {
        "type": "Point",
        "coordinates": [
          -87.62246527850039,
          41.762049750480905
        ]
      },
      "properties": {
        "group_id": "moms-united-against-violence-and-incarceration-muavi",
        "name": "Moms United Against Violence and Incarceration (MUAVI)",
        "location_name": "Neighbourhood Centroid",
        "address": "South Side / Citywide",
        "verification_status": "VERIFIED",
        "category": "Caregiver / Family Support"
      }
    },
    {
      "type": "Feature",
      "geometry": {
        "type": "Point",
        "coordinates": [
          -87.64353162871484,
          41.774333742120646
        ]
      },
      "properties": {
        "group_id": "precious-blood-ministry-of-reconciliation-pbmr",
        "name": "Precious Blood Ministry of Reconciliation (PBMR)",
        "location_name": "Neighbourhood Centroid",
        "address": "Back of the Yards / Englewood",
        "verification_status": "VERIFIED",
        "category": "Restorative Justice"
      }
    },
    {
      "type": "Feature",
      "geometry": {
        "type": "Point",
        "coordinates": [
          -87.65574303154112,
          41.973045979984086
        ]
      },
      "properties": {
        "group_id": "prison-neighborhood-arts-education-project-pnap",
        "name": "Prison + Neighborhood Arts/Education Project (PNAP)",
        "location_name": "Neighbourhood Centroid",
        "address": "Uptown",
        "verification_status": "VERIFIED",
        "category": "Books & Arts in Prison"
      }
    },
    {
      "type": "Feature",
      "geometry": {
        "type": "Point",
        "coordinates": [
          -87.73757089225191,
          41.883455558111635
        ]
      },
      "properties": {
        "group_id": "safer-foundation",
        "name": "Safer Foundation",
        "location_name": "Neighbourhood Centroid",
        "address": "Near West Side / Southwest Side",
        "verification_status": "VERIFIED",
        "category": "Reentry Support"
      }
    },
    {
      "type": "Feature",
      "geometry": {
        "type": "Point",
        "coordinates": [
          -87.6583650910128,
          41.973632634029805
        ]
      },
      "properties": {
        "group_id": "transformative-justice-law-project-of-illinois-tjlp",
        "name": "Transformative Justice Law Project of Illinois (TJLP)",
        "location_name": "Neighbourhood Centroid",
        "address": "Uptown",
        "verification_status": "VERIFIED",
        "category": "Legal Advocacy / Abolitionist"
      }
    },
    {
      "type": "Feature",
      "geometry": {
        "type": "Point",
        "coordinates": [
          -87.71684571273501,
          41.88334206959854
        ]
      },
      "properties": {
        "group_id": "transforming-reentry-services-mwipm",
        "name": "Transforming Reentry Services / MWIPM",
        "location_name": "Neighbourhood Centroid",
        "address": "Douglas / East Garfield Park",
        "verification_status": "VERIFIED",
        "category": "Reentry Support"
      }
    },
    {
      "type": "Feature",
      "geometry": {
        "type": "Point",
        "coordinates": [
          -87.72705426104415,
          41.97041662189119
        ]
      },
      "properties": {
        "group_id": "catholic-charities-of-chicago-immigrant-services",
        "name": "Catholic Charities of Chicago \u2014 Immigrant Services",
        "location_name": "Neighbourhood Centroid",
        "address": "Albany Park",
        "verification_status": "VERIFIED",
        "category": "Refugee Resettlement / Immigrant Services"
      }
    },
    {
      "type": "Feature",
      "geometry": {
        "type": "Point",
        "coordinates": [
          -87.65834747710637,
          41.99068021529916
        ]
      },
      "properties": {
        "group_id": "centro-romero",
        "name": "Centro Romero",
        "location_name": "Neighbourhood Centroid",
        "address": "Edgewater",
        "verification_status": "VERIFIED",
        "category": "Immigrant Community Services / Education"
      }
    },
    {
      "type": "Feature",
      "geometry": {
        "type": "Point",
        "coordinates": [
          -87.6591935038893,
          41.97488022179502
        ]
      },
      "properties": {
        "group_id": "ethiopian-community-association-of-chicago-ecac",
        "name": "Ethiopian Community Association of Chicago (ECAC)",
        "location_name": "Neighbourhood Centroid",
        "address": "Uptown",
        "verification_status": "VERIFIED",
        "category": "East African Immigrant Services"
      }
    },
    {
      "type": "Feature",
      "geometry": {
        "type": "Point",
        "coordinates": [
          -87.66229869903614,
          41.96786139413578
        ]
      },
      "properties": {
        "group_id": "mira-chicago-middle-eastern-immigrant-refugee-alliance",
        "name": "MIRA Chicago (Middle Eastern Immigrant & Refugee Alliance)",
        "location_name": "Neighbourhood Centroid",
        "address": "North Side / Lincolnwood",
        "verification_status": "VERIFIED",
        "category": "Middle Eastern Refugee & Immigrant Services"
      }
    },
    {
      "type": "Feature",
      "geometry": {
        "type": "Point",
        "coordinates": [
          -87.66160191228708,
          41.99877183885875
        ]
      },
      "properties": {
        "group_id": "refugeeone",
        "name": "RefugeeOne",
        "location_name": "Neighbourhood Centroid",
        "address": "West Rogers Park",
        "verification_status": "VERIFIED",
        "category": "Refugee Resettlement / Integration"
      }
    },
    {
      "type": "Feature",
      "geometry": {
        "type": "Point",
        "coordinates": [
          -87.66368032227841,
          41.85342206900725
        ]
      },
      "properties": {
        "group_id": "the-resurrection-project-trp-immigrant-justice",
        "name": "The Resurrection Project / TRP Immigrant Justice",
        "location_name": "Neighbourhood Centroid",
        "address": "Pilsen",
        "verification_status": "VERIFIED",
        "category": "Immigrant Legal Services / Community Organizing"
      }
    },
    {
      "type": "Feature",
      "geometry": {
        "type": "Point",
        "coordinates": [
          -87.72707167534288,
          41.968255255301436
        ]
      },
      "properties": {
        "group_id": "world-relief-chicagoland",
        "name": "World Relief Chicagoland",
        "location_name": "Neighbourhood Centroid",
        "address": "Albany Park",
        "verification_status": "VERIFIED",
        "category": "Refugee Resettlement / ESL / Employment"
      }
    },
    {
      "type": "Feature",
      "geometry": {
        "type": "Point",
        "coordinates": [
          -87.6183379997635,
          41.758117641614476
        ]
      },
      "properties": {
        "group_id": "young-center-for-immigrant-children-s-rights",
        "name": "Young Center for Immigrant Children's Rights",
        "location_name": "Neighbourhood Centroid",
        "address": "Near South Side",
        "verification_status": "VERIFIED",
        "category": "Unaccompanied Immigrant Children / Child Advocacy"
      }
    },
    {
      "type": "Feature",
      "geometry": {
        "type": "Point",
        "coordinates": [
          -87.64629425429258,
          41.775157471430326
        ]
      },
      "properties": {
        "group_id": "growing-home-inc",
        "name": "Growing Home Inc.",
        "location_name": "Neighbourhood Centroid",
        "address": "Englewood",
        "verification_status": "VERIFIED",
        "category": "Urban Agriculture / Workforce Development"
      }
    },
    {
      "type": "Feature",
      "geometry": {
        "type": "Point",
        "coordinates": [
          -87.71825932506137,
          41.88238386675416
        ]
      },
      "properties": {
        "group_id": "deborah-s-place",
        "name": "Deborah's Place",
        "location_name": "Neighbourhood Centroid",
        "address": "East Garfield Park / Citywide",
        "verification_status": "LIKELY_ACTIVE",
        "category": "Supportive Housing (Women)"
      }
    },
    {
      "type": "Feature",
      "geometry": {
        "type": "Point",
        "coordinates": [
          -87.65807761774823,
          41.97485950841682
        ]
      },
      "properties": {
        "group_id": "northside-housing-support-services-nshss",
        "name": "Northside Housing & Support Services (NSHSS)",
        "location_name": "Neighbourhood Centroid",
        "address": "Rogers Park / Uptown",
        "verification_status": "VERIFIED",
        "category": "Homeless Services / Emergency Shelter"
      }
    },
    {
      "type": "Feature",
      "geometry": {
        "type": "Point",
        "coordinates": [
          -87.6612870176679,
          41.85452503683978
        ]
      },
      "properties": {
        "group_id": "pilsen-alliance",
        "name": "Pilsen Alliance",
        "location_name": "Neighbourhood Centroid",
        "address": "Pilsen / Lower West Side",
        "verification_status": "VERIFIED",
        "category": "Community Organizing / Anti-Displacement"
      }
    },
    {
      "type": "Feature",
      "geometry": {
        "type": "Point",
        "coordinates": [
          -87.66014752654746,
          41.97415062518703
        ]
      },
      "properties": {
        "group_id": "sarah-s-circle",
        "name": "Sarah's Circle",
        "location_name": "Neighbourhood Centroid",
        "address": "Uptown",
        "verification_status": "VERIFIED",
        "category": "Homeless Services (Women)"
      }
    },
    {
      "type": "Feature",
      "geometry": {
        "type": "Point",
        "coordinates": [
          -87.59847345845898,
          41.79818352468141
        ]
      },
      "properties": {
        "group_id": "mandel-legal-aid-clinic-uchicago-law",
        "name": "Mandel Legal Aid Clinic (UChicago Law)",
        "location_name": "Neighbourhood Centroid",
        "address": "Hyde Park",
        "verification_status": "VERIFIED",
        "category": "Law School Legal Clinic"
      }
    },
    {
      "type": "Feature",
      "geometry": {
        "type": "Point",
        "coordinates": [
          -87.6561669324205,
          41.97459348883237
        ]
      },
      "properties": {
        "group_id": "uptown-people-s-law-center",
        "name": "Uptown People's Law Center",
        "location_name": "Neighbourhood Centroid",
        "address": "Uptown",
        "verification_status": "VERIFIED",
        "category": "Housing & Prisoner Rights Legal Aid"
      }
    },
    {
      "type": "Feature",
      "geometry": {
        "type": "Point",
        "coordinates": [
          -87.76758090438075,
          41.89775521352714
        ]
      },
      "properties": {
        "group_id": "austin-coming-together-act",
        "name": "Austin Coming Together (ACT)",
        "location_name": "Neighbourhood Centroid",
        "address": "Austin / West Side",
        "verification_status": "VERIFIED",
        "category": "Collective Impact / Neighborhood Advocacy"
      }
    },
    {
      "type": "Feature",
      "geometry": {
        "type": "Point",
        "coordinates": [
          -87.61812574163106,
          41.82265343214605
        ]
      },
      "properties": {
        "group_id": "bronzeville-community-development-partnership-bcdp",
        "name": "Bronzeville Community Development Partnership (BCDP)",
        "location_name": "Neighbourhood Centroid",
        "address": "Bronzeville",
        "verification_status": "VERIFIED",
        "category": "Community / Economic Development"
      }
    },
    {
      "type": "Feature",
      "geometry": {
        "type": "Point",
        "coordinates": [
          -87.76793704297033,
          41.89952695911919
        ]
      },
      "properties": {
        "group_id": "build-chicago-broader-urban-involvement-leadership-development",
        "name": "BUILD Chicago (Broader Urban Involvement & Leadership Development)",
        "location_name": "Neighbourhood Centroid",
        "address": "Austin / West Side",
        "verification_status": "VERIFIED",
        "category": "Youth Development / Community Advocacy"
      }
    },
    {
      "type": "Feature",
      "geometry": {
        "type": "Point",
        "coordinates": [
          -87.62279980033594,
          41.691859676161975
        ]
      },
      "properties": {
        "group_id": "developing-communities-project-dcp",
        "name": "Developing Communities Project (DCP)",
        "location_name": "Neighbourhood Centroid",
        "address": "Southeast Chicago (Roseland / Pullman)",
        "verification_status": "UNCERTAIN",
        "category": "Faith-Based / Community Organizing"
      }
    },
    {
      "type": "Feature",
      "geometry": {
        "type": "Point",
        "coordinates": [
          -87.61796521577578,
          41.760475756193436
        ]
      },
      "properties": {
        "group_id": "far-south-community-development-corporation-far-south-cdc",
        "name": "Far South Community Development Corporation (Far South CDC)",
        "location_name": "Neighbourhood Centroid",
        "address": "Far South Side (Roseland",
        "verification_status": "VERIFIED",
        "category": "Community / Economic Development"
      }
    },
    {
      "type": "Feature",
      "geometry": {
        "type": "Point",
        "coordinates": [
          -87.64615584672653,
          41.770652472289406
        ]
      },
      "properties": {
        "group_id": "good-kids-mad-city-gkmc-englewood",
        "name": "Good Kids Mad City (GKMC) \u2013 Englewood",
        "location_name": "Neighbourhood Centroid",
        "address": "Englewood / West Englewood",
        "verification_status": "VERIFIED",
        "category": "Youth Advocacy / Peace Building"
      }
    },
    {
      "type": "Feature",
      "geometry": {
        "type": "Point",
        "coordinates": [
          -87.60718066171943,
          41.74962288691861
        ]
      },
      "properties": {
        "group_id": "greater-chatham-initiative-gci",
        "name": "Greater Chatham Initiative (GCI)",
        "location_name": "Neighbourhood Centroid",
        "address": "Chatham / Greater Grand Crossing / Avalon Park / Auburn Gresham",
        "verification_status": "VERIFIED",
        "category": "Community / Economic Development"
      }
    },
    {
      "type": "Feature",
      "geometry": {
        "type": "Point",
        "coordinates": [
          -87.70586398079398,
          41.920249091289165
        ]
      },
      "properties": {
        "group_id": "logan-square-neighborhood-association-palenque-lsna",
        "name": "Logan Square Neighborhood Association / Palenque LSNA",
        "location_name": "Neighbourhood Centroid",
        "address": "Logan Square / Avondale / Hermosa",
        "verification_status": "VERIFIED",
        "category": "Community Organizing / Education & Housing Advocacy"
      }
    },
    {
      "type": "Feature",
      "geometry": {
        "type": "Point",
        "coordinates": [
          -87.74013768330207,
          41.881468703501085
        ]
      },
      "properties": {
        "group_id": "north-lawndale-community-coordinating-council-nlccc",
        "name": "North Lawndale Community Coordinating Council (NLCCC)",
        "location_name": "Neighbourhood Centroid",
        "address": "North Lawndale / West Side",
        "verification_status": "VERIFIED",
        "category": "Community Planning / Neighborhood Advocacy"
      }
    },
    {
      "type": "Feature",
      "geometry": {
        "type": "Point",
        "coordinates": [
          -87.72564611202073,
          41.9547961217996
        ]
      },
      "properties": {
        "group_id": "northwest-side-housing-center-nwshc",
        "name": "Northwest Side Housing Center (NWSHC)",
        "location_name": "Neighbourhood Centroid",
        "address": "Northwest Side (Belmont Cragin / Portage Park / Irving Park)",
        "verification_status": "VERIFIED",
        "category": "Housing Advocacy / Community Organizing"
      }
    },
    {
      "type": "Feature",
      "geometry": {
        "type": "Point",
        "coordinates": [
          -87.65085715538086,
          41.94548545140773
        ]
      },
      "properties": {
        "group_id": "one-northside-organizing-neighborhoods-for-equality",
        "name": "ONE Northside (Organizing Neighborhoods for Equality)",
        "location_name": "Neighbourhood Centroid",
        "address": "Rogers Park / Edgewater / Uptown / Lakeview / North Center / Lincoln Park",
        "verification_status": "VERIFIED",
        "category": "Community Organizing / Neighborhood Advocacy"
      }
    },
    {
      "type": "Feature",
      "geometry": {
        "type": "Point",
        "coordinates": [
          -87.66275592217896,
          41.85540576172939
        ]
      },
      "properties": {
        "group_id": "pilsen-neighbors-community-council-pncc",
        "name": "Pilsen Neighbors Community Council (PNCC)",
        "location_name": "Neighbourhood Centroid",
        "address": "Pilsen / Lower West Side",
        "verification_status": "VERIFIED",
        "category": "Community Organizing / Advocacy"
      }
    },
    {
      "type": "Feature",
      "geometry": {
        "type": "Point",
        "coordinates": [
          -87.737576307606,
          41.88210127465249
        ]
      },
      "properties": {
        "group_id": "southwest-organizing-project-swop",
        "name": "Southwest Organizing Project (SWOP)",
        "location_name": "Neighbourhood Centroid",
        "address": "Southwest Side (West Elsdon / West Lawn / Gage Park / Chicago Lawn / Ashburn)",
        "verification_status": "VERIFIED",
        "category": "Community Organizing / Neighborhood Advocacy"
      }
    },
    {
      "type": "Feature",
      "geometry": {
        "type": "Point",
        "coordinates": [
          -87.76534071922636,
          41.89782314823235
        ]
      },
      "properties": {
        "group_id": "westside-health-authority-wha",
        "name": "Westside Health Authority (WHA)",
        "location_name": "Neighbourhood Centroid",
        "address": "Austin / West Side",
        "verification_status": "VERIFIED",
        "category": "Community Health / Neighborhood Development"
      }
    },
    {
      "type": "Feature",
      "geometry": {
        "type": "Point",
        "coordinates": [
          -87.72032674237725,
          41.89979579202495
        ]
      },
      "properties": {
        "group_id": "humboldt-park-solidarity-network-casa-hernandez",
        "name": "Humboldt Park Solidarity Network (Casa Hernandez)",
        "location_name": "Neighbourhood Centroid",
        "address": "Humboldt Park",
        "verification_status": "VERIFIED",
        "category": "Neighborhood Mutual Aid / Free Store"
      }
    },
    {
      "type": "Feature",
      "geometry": {
        "type": "Point",
        "coordinates": [
          -87.64815266961077,
          41.944076050176356
        ]
      },
      "properties": {
        "group_id": "lakeview-lincoln-park-mutual-aid-network-llma",
        "name": "Lakeview / Lincoln Park Mutual Aid Network (LLMA)",
        "location_name": "Neighbourhood Centroid",
        "address": "Lakeview / Lincoln Park",
        "verification_status": "VERIFIED",
        "category": "Neighborhood Mutual Aid Network"
      }
    },
    {
      "type": "Feature",
      "geometry": {
        "type": "Point",
        "coordinates": [
          -87.6488560658255,
          41.94524827595917
        ]
      },
      "properties": {
        "group_id": "howard-brown-health",
        "name": "Howard Brown Health",
        "location_name": "Neighbourhood Centroid",
        "address": "Multiple (Lakeview",
        "verification_status": "VERIFIED",
        "category": "LGBTQ+ Healthcare"
      }
    },
    {
      "type": "Feature",
      "geometry": {
        "type": "Point",
        "coordinates": [
          -87.65771371260519,
          41.971743197381784
        ]
      },
      "properties": {
        "group_id": "test-positive-aware-network-tpan",
        "name": "Test Positive Aware Network (TPAN)",
        "location_name": "Neighbourhood Centroid",
        "address": "Uptown",
        "verification_status": "VERIFIED",
        "category": "HIV/AIDS Support / Harm Reduction"
      }
    },
    {
      "type": "Feature",
      "geometry": {
        "type": "Point",
        "coordinates": [
          -87.73938145257705,
          41.88175093288105
        ]
      },
      "properties": {
        "group_id": "chicago-lighthouse",
        "name": "Chicago Lighthouse",
        "location_name": "Neighbourhood Centroid",
        "address": "Near West Side",
        "verification_status": "VERIFIED",
        "category": "Disability / Vision Services"
      }
    },
    {
      "type": "Feature",
      "geometry": {
        "type": "Point",
        "coordinates": [
          -87.72678528632561,
          41.9548439876224
        ]
      },
      "properties": {
        "group_id": "communityhealth",
        "name": "CommunityHealth",
        "location_name": "Neighbourhood Centroid",
        "address": "Ukrainian Village / Irving Park",
        "verification_status": "VERIFIED",
        "category": "Free Clinic / Primary Care"
      }
    },
    {
      "type": "Feature",
      "geometry": {
        "type": "Point",
        "coordinates": [
          -87.72088550802162,
          41.90013510517669
        ]
      },
      "properties": {
        "group_id": "connections-for-abused-women-and-their-children-cawc",
        "name": "Connections for Abused Women and Their Children (CAWC)",
        "location_name": "Neighbourhood Centroid",
        "address": "Humboldt Park",
        "verification_status": "VERIFIED",
        "category": "Domestic Violence / Health"
      }
    },
    {
      "type": "Feature",
      "geometry": {
        "type": "Point",
        "coordinates": [
          -87.656286430745,
          41.97178919798125
        ]
      },
      "properties": {
        "group_id": "heartland-health-outreach",
        "name": "Heartland Health Outreach",
        "location_name": "Neighbourhood Centroid",
        "address": "Uptown / Citywide",
        "verification_status": "VERIFIED",
        "category": "Community Health Center"
      }
    },
    {
      "type": "Feature",
      "geometry": {
        "type": "Point",
        "coordinates": [
          -87.65940741870338,
          41.97500764638828
        ]
      },
      "properties": {
        "group_id": "nami-chicago",
        "name": "NAMI Chicago",
        "location_name": "Neighbourhood Centroid",
        "address": "Uptown",
        "verification_status": "VERIFIED",
        "category": "Mental Health"
      }
    },
    {
      "type": "Feature",
      "geometry": {
        "type": "Point",
        "coordinates": [
          -87.74078523891123,
          41.88355653349599
        ]
      },
      "properties": {
        "group_id": "rush-university-medical-center",
        "name": "Rush University Medical Center",
        "location_name": "Neighbourhood Centroid",
        "address": "Near West Side",
        "verification_status": "VERIFIED",
        "category": "Hospital / Health System"
      }
    },
    {
      "type": "Feature",
      "geometry": {
        "type": "Point",
        "coordinates": [
          -87.66128547333206,
          41.856681028757535
        ]
      },
      "properties": {
        "group_id": "saint-anthony-hospital",
        "name": "Saint Anthony Hospital",
        "location_name": "Neighbourhood Centroid",
        "address": "West Side / Pilsen",
        "verification_status": "VERIFIED",
        "category": "Hospital / Health System"
      }
    },
    {
      "type": "Feature",
      "geometry": {
        "type": "Point",
        "coordinates": [
          -87.72095281868582,
          41.90092165459965
        ]
      },
      "properties": {
        "group_id": "sinai-chicago-mount-sinai-hospital",
        "name": "Sinai Chicago (Mount Sinai Hospital)",
        "location_name": "Neighbourhood Centroid",
        "address": "North Lawndale / Humboldt Park",
        "verification_status": "VERIFIED",
        "category": "Hospital / Health System"
      }
    },
    {
      "type": "Feature",
      "geometry": {
        "type": "Point",
        "coordinates": [
          -87.59836660865571,
          41.79403187460906
        ]
      },
      "properties": {
        "group_id": "uchicago-medicine-comer-children-s-hospital",
        "name": "UChicago Medicine / Comer Children's Hospital",
        "location_name": "Neighbourhood Centroid",
        "address": "Hyde Park",
        "verification_status": "VERIFIED",
        "category": "Hospital / Health System"
      }
    },
    {
      "type": "Feature",
      "geometry": {
        "type": "Point",
        "coordinates": [
          -87.73956961120568,
          41.883162397736896
        ]
      },
      "properties": {
        "group_id": "ui-health-university-of-illinois-hospital",
        "name": "UI Health (University of Illinois Hospital)",
        "location_name": "Neighbourhood Centroid",
        "address": "Near West Side / Medical District",
        "verification_status": "VERIFIED",
        "category": "Hospital / Health System"
      }
    },
    {
      "type": "Feature",
      "geometry": {
        "type": "Point",
        "coordinates": [
          -87.71770925253675,
          41.88303294400766
        ]
      },
      "properties": {
        "group_id": "bethel-new-life",
        "name": "Bethel New Life",
        "location_name": "Neighbourhood Centroid",
        "address": "West Garfield Park",
        "verification_status": "VERIFIED",
        "category": "Community Development/Housing"
      }
    },
    {
      "type": "Feature",
      "geometry": {
        "type": "Point",
        "coordinates": [
          -87.7380706556959,
          41.88377958452108
        ]
      },
      "properties": {
        "group_id": "greater-southwest-development-corporation-gsdc",
        "name": "Greater Southwest Development Corporation (GSDC)",
        "location_name": "Neighbourhood Centroid",
        "address": "Chicago Lawn / Southwest Side",
        "verification_status": "VERIFIED",
        "category": "Commercial & Economic Development"
      }
    },
    {
      "type": "Feature",
      "geometry": {
        "type": "Point",
        "coordinates": [
          -87.62167868319426,
          41.762040998531674
        ]
      },
      "properties": {
        "group_id": "far-south-community-development-corporation",
        "name": "Far South Community Development Corporation",
        "location_name": "Neighbourhood Centroid",
        "address": "Far South Side / South Suburbs",
        "verification_status": "VERIFIED",
        "category": "Economic & Community Development"
      }
    },
    {
      "type": "Feature",
      "geometry": {
        "type": "Point",
        "coordinates": [
          -87.73954460103725,
          41.88103353631795
        ]
      },
      "properties": {
        "group_id": "near-west-side-community-development-corporation-nwscdc",
        "name": "Near West Side Community Development Corporation (NWSCDC)",
        "location_name": "Neighbourhood Centroid",
        "address": "Near West Side",
        "verification_status": "VERIFIED",
        "category": "Community Development/Social Services"
      }
    },
    {
      "type": "Feature",
      "geometry": {
        "type": "Point",
        "coordinates": [
          -87.66339063223462,
          41.75350087733727
        ]
      },
      "properties": {
        "group_id": "neighborhood-housing-services-of-chicago-nhs",
        "name": "Neighborhood Housing Services of Chicago (NHS)",
        "location_name": "Neighbourhood Centroid",
        "address": "Citywide (Auburn Gresham",
        "verification_status": "VERIFIED",
        "category": "Housing/Community Development"
      }
    },
    {
      "type": "Feature",
      "geometry": {
        "type": "Point",
        "coordinates": [
          -87.66144766292892,
          41.75284334295442
        ]
      },
      "properties": {
        "group_id": "greater-auburn-gresham-development-corporation-gadc",
        "name": "Greater Auburn-Gresham Development Corporation (GADC)",
        "location_name": "Neighbourhood Centroid",
        "address": "Auburn Gresham",
        "verification_status": "VERIFIED",
        "category": "Economic & Community Development"
      }
    },
    {
      "type": "Feature",
      "geometry": {
        "type": "Point",
        "coordinates": [
          -87.66085212296404,
          41.85514712705529
        ]
      },
      "properties": {
        "group_id": "pilsen-neighbors-community-council",
        "name": "Pilsen Neighbors Community Council",
        "location_name": "Neighbourhood Centroid",
        "address": "Pilsen",
        "verification_status": "VERIFIED",
        "category": "Community Development/Organizing"
      }
    },
    {
      "type": "Feature",
      "geometry": {
        "type": "Point",
        "coordinates": [
          -87.66150833747623,
          41.85640534889751
        ]
      },
      "properties": {
        "group_id": "the-resurrection-project",
        "name": "The Resurrection Project",
        "location_name": "Neighbourhood Centroid",
        "address": "Pilsen / Little Village / Back of the Yards",
        "verification_status": "VERIFIED",
        "category": "Affordable Housing & Community Development"
      }
    },
    {
      "type": "Feature",
      "geometry": {
        "type": "Point",
        "coordinates": [
          -87.6444028311858,
          41.77070679616738
        ]
      },
      "properties": {
        "group_id": "greater-englewood-community-development-corporation-gecdc",
        "name": "Greater Englewood Community Development Corporation (GECDC)",
        "location_name": "Neighbourhood Centroid",
        "address": "Englewood",
        "verification_status": "VERIFIED",
        "category": "Economic & Community Development"
      }
    },
    {
      "type": "Feature",
      "geometry": {
        "type": "Point",
        "coordinates": [
          -87.61748763500262,
          41.822947410796296
        ]
      },
      "properties": {
        "group_id": "quad-communities-development-corporation-qcdc",
        "name": "Quad Communities Development Corporation (QCDC)",
        "location_name": "Neighbourhood Centroid",
        "address": "Bronzeville / Douglas / Grand Boulevard / Oakland",
        "verification_status": "VERIFIED",
        "category": "Community Development/Planning"
      }
    },
    {
      "type": "Feature",
      "geometry": {
        "type": "Point",
        "coordinates": [
          -87.76629167924813,
          41.89808635087442
        ]
      },
      "properties": {
        "group_id": "westside-health-authority",
        "name": "Westside Health Authority",
        "location_name": "Neighbourhood Centroid",
        "address": "Austin",
        "verification_status": "VERIFIED",
        "category": "Health & Community Development"
      }
    },
    {
      "type": "Feature",
      "geometry": {
        "type": "Point",
        "coordinates": [
          -87.65107563825036,
          41.83356719176719
        ]
      },
      "properties": {
        "group_id": "coalition-for-a-better-chinese-american-community-cbcac",
        "name": "Coalition for a Better Chinese American Community (CBCAC)",
        "location_name": "Neighbourhood Centroid",
        "address": "Chinatown / Bridgeport",
        "verification_status": "VERIFIED",
        "category": "Community Development/Advocacy"
      }
    },
    {
      "type": "Feature",
      "geometry": {
        "type": "Point",
        "coordinates": [
          -87.72185219877571,
          41.89885355109425
        ]
      },
      "properties": {
        "group_id": "spanish-coalition-for-housing",
        "name": "Spanish Coalition for Housing",
        "location_name": "Neighbourhood Centroid",
        "address": "Humboldt Park / Citywide",
        "verification_status": "VERIFIED",
        "category": "Affordable Housing/Community Development"
      }
    },
    {
      "type": "Feature",
      "geometry": {
        "type": "Point",
        "coordinates": [
          -87.76425778728239,
          41.89983265917249
        ]
      },
      "properties": {
        "group_id": "south-austin-coalition-community-council",
        "name": "South Austin Coalition Community Council",
        "location_name": "Neighbourhood Centroid",
        "address": "Austin",
        "verification_status": "LIKELY_ACTIVE",
        "category": "Community Organizing/Development"
      }
    },
    {
      "type": "Feature",
      "geometry": {
        "type": "Point",
        "coordinates": [
          -87.61860626968446,
          41.76129998304691
        ]
      },
      "properties": {
        "group_id": "people-for-community-recovery-pcr",
        "name": "People for Community Recovery (PCR)",
        "location_name": "Neighbourhood Centroid",
        "address": "Altgeld Gardens / Far South Side",
        "verification_status": "VERIFIED",
        "category": "Environmental Justice/Community Organizing"
      }
    },
    {
      "type": "Feature",
      "geometry": {
        "type": "Point",
        "coordinates": [
          -87.66243789224303,
          41.853220624833774
        ]
      },
      "properties": {
        "group_id": "pilsen-environmental-rights-and-reform-organization-perro",
        "name": "Pilsen Environmental Rights and Reform Organization (PERRO)",
        "location_name": "Neighbourhood Centroid",
        "address": "Pilsen",
        "verification_status": "VERIFIED",
        "category": "Environmental Justice/Community Organizing"
      }
    },
    {
      "type": "Feature",
      "geometry": {
        "type": "Point",
        "coordinates": [
          -87.74007497065885,
          41.882758139798256
        ]
      },
      "properties": {
        "group_id": "neighbors-for-environmental-justice-n4ej",
        "name": "Neighbors For Environmental Justice (N4EJ)",
        "location_name": "Neighbourhood Centroid",
        "address": "Southwest Side / Citywide",
        "verification_status": "VERIFIED",
        "category": "Environmental Justice/Community Organizing"
      }
    },
    {
      "type": "Feature",
      "geometry": {
        "type": "Point",
        "coordinates": [
          -87.61993230184784,
          41.762266150984836
        ]
      },
      "properties": {
        "group_id": "community-awareness-response-encouraging-sustainability-cares",
        "name": "Community Awareness Response Encouraging Sustainability (CARES)",
        "location_name": "Neighbourhood Centroid",
        "address": "South Side",
        "verification_status": "UNCERTAIN",
        "category": "Environmental Justice/Education"
      }
    },
    {
      "type": "Feature",
      "geometry": {
        "type": "Point",
        "coordinates": [
          -87.66214660486251,
          41.854448940782156
        ]
      },
      "properties": {
        "group_id": "centro-comunitario-juan-diego",
        "name": "Centro Comunitario Juan Diego",
        "location_name": "Neighbourhood Centroid",
        "address": "Pilsen",
        "verification_status": "LIKELY_ACTIVE",
        "category": "Environmental Justice/Community Services"
      }
    },
    {
      "type": "Feature",
      "geometry": {
        "type": "Point",
        "coordinates": [
          -87.62171913080631,
          41.757905841475534
        ]
      },
      "properties": {
        "group_id": "chifresh-kitchen",
        "name": "ChiFresh Kitchen",
        "location_name": "Neighbourhood Centroid",
        "address": "Greater Grand Crossing / South Side",
        "verification_status": "VERIFIED",
        "category": "Worker Cooperative / Food Service"
      }
    },
    {
      "type": "Feature",
      "geometry": {
        "type": "Point",
        "coordinates": [
          -87.76766336374664,
          41.89760145784634
        ]
      },
      "properties": {
        "group_id": "chicago-tool-library",
        "name": "Chicago Tool Library",
        "location_name": "Neighbourhood Centroid",
        "address": "Austin / West Side",
        "verification_status": "VERIFIED",
        "category": "Sharing Economy / Community Cooperative"
      }
    },
    {
      "type": "Feature",
      "geometry": {
        "type": "Point",
        "coordinates": [
          -87.64754021058428,
          41.771445394258585
        ]
      },
      "properties": {
        "group_id": "grow-greater-englewood-gge",
        "name": "Grow Greater Englewood (GGE)",
        "location_name": "Neighbourhood Centroid",
        "address": "Englewood",
        "verification_status": "VERIFIED",
        "category": "Food Justice / Urban Agriculture / Economic Development"
      }
    },
    {
      "type": "Feature",
      "geometry": {
        "type": "Point",
        "coordinates": [
          -87.65945298726298,
          41.967755745919106
        ]
      },
      "properties": {
        "group_id": "new-era-windows-cooperative",
        "name": "New Era Windows Cooperative",
        "location_name": "Neighbourhood Centroid",
        "address": "Goose Island / Near North Side",
        "verification_status": "VERIFIED",
        "category": "Worker Cooperative / Manufacturing"
      }
    },
    {
      "type": "Feature",
      "geometry": {
        "type": "Point",
        "coordinates": [
          -87.59098429493532,
          41.776590297405406
        ]
      },
      "properties": {
        "group_id": "southside-together-organizing-for-power-stop",
        "name": "Southside Together Organizing for Power (STOP)",
        "location_name": "Neighbourhood Centroid",
        "address": "Woodlawn / South Side",
        "verification_status": "VERIFIED",
        "category": "Community Organizing / Economic Justice"
      }
    },
    {
      "type": "Feature",
      "geometry": {
        "type": "Point",
        "coordinates": [
          -87.62181438149022,
          41.76222229332958
        ]
      },
      "properties": {
        "group_id": "ujamaa-community-land-trust",
        "name": "Ujamaa Community Land Trust",
        "location_name": "Neighbourhood Centroid",
        "address": "South Side",
        "verification_status": "LIKELY_ACTIVE",
        "category": "Community Land Trust / Economic Justice"
      }
    },
    {
      "type": "Feature",
      "geometry": {
        "type": "Point",
        "coordinates": [
          -87.74146292893664,
          41.88209404570066
        ]
      },
      "properties": {
        "group_id": "warehouse-workers-for-justice-wwj",
        "name": "Warehouse Workers for Justice (WWJ)",
        "location_name": "Neighbourhood Centroid",
        "address": "Southwest Side / Citywide",
        "verification_status": "VERIFIED",
        "category": "Labor Justice / Worker Rights"
      }
    },
    {
      "type": "Feature",
      "geometry": {
        "type": "Point",
        "coordinates": [
          -87.66272879419336,
          41.99761873470955
        ]
      },
      "properties": {
        "group_id": "wild-onion-market",
        "name": "Wild Onion Market",
        "location_name": "Neighbourhood Centroid",
        "address": "Rogers Park",
        "verification_status": "VERIFIED",
        "category": "Consumer Cooperative / Food Justice"
      }
    },
    {
      "type": "Feature",
      "geometry": {
        "type": "Point",
        "coordinates": [
          -87.61887746162135,
          41.76104002021076
        ]
      },
      "properties": {
        "group_id": "family-rescue",
        "name": "Family Rescue",
        "location_name": "Neighbourhood Centroid",
        "address": "South Side (Stony Island Ave)",
        "verification_status": "VERIFIED",
        "category": "Domestic Violence Shelter & Services"
      }
    },
    {
      "type": "Feature",
      "geometry": {
        "type": "Point",
        "coordinates": [
          -87.66218171889038,
          41.971651819337986
        ]
      },