{
  "type": "FeatureCollection",
  "features": [
    {
      "type": "Feature",
      "geometry": {
        "type": "Point",
        "coordinates": [
          -87.654278,
          41.764971
        ]
      },
      "properties": {
        "group_id": "cooperation-racine",
        "name": "Cooperation Racine",
        "location_name": "",
        "address": "1201 W 71st St",
        "verification_status": "VERIFIED",
        "category": "Worker Co-ops & Economic Justice"
      }
    },
    {
      "type": "Feature",
      "geometry": {
        "type": "Point",
        "coordinates": [
          -87.6411518,
          41.8378541
        ]
      },
      "properties": {
        "group_id": "mouse-arts-letters",
        "name": "Unknown Group",
        "location_name": "",
        "address": "555 W 31st St",
        "verification_status": "UNCERTAIN",
        "category": ""
      }
    },
    {
      "type": "Feature",
      "geometry": {
        "type": "Point",
        "coordinates": [
          -87.6565482,
          41.8309771
        ]
      },
      "properties": {
        "group_id": "bridgeport-alliance",
        "name": "Bridgeport Alliance",
        "location_name": "",
        "address": "1200 W 35th St",
        "verification_status": "VERIFIED",
        "category": "Community Advocacy"
      }
    },
    {
      "type": "Feature",
      "geometry": {
        "type": "Point",
        "coordinates": [
          -87.6238726,
          41.7378107
        ]
      },
      "properties": {
        "group_id": "chatham-avalon-ministries",
        "name": "Chatham-Avalon Ministries",
        "location_name": "",
        "address": "8601 S State St",
        "verification_status": "VERIFIED",
        "category": "Food Security"
      }
    },
    {
      "type": "Feature",
      "geometry": {
        "type": "Point",
        "coordinates": [
          -87.6211704,
          41.6964894
        ]
      },
      "properties": {
        "group_id": "roseland-christian-ministries",
        "name": "Roseland Christian Ministries",
        "location_name": "",
        "address": "10858 S Michigan Ave",
        "verification_status": "VERIFIED",
        "category": "Food Security"
      }
    },
    {
      "type": "Feature",
      "geometry": {
        "type": "Point",
        "coordinates": [
          -87.6418495,
          41.68791
        ]
      },
      "properties": {
        "group_id": "sheldon-heights-pantry",
        "name": "Unknown Group",
        "location_name": "",
        "address": "11325 S Halsted St",
        "verification_status": "UNCERTAIN",
        "category": ""
      }
    },
    {
      "type": "Feature",
      "geometry": {
        "type": "Point",
        "coordinates": [
          -87.6519522,
          41.7507436
        ]
      },
      "properties": {
        "group_id": "st-sabina-pantry",
        "name": "Unknown Group",
        "location_name": "",
        "address": "1120 W 79th St",
        "verification_status": "UNCERTAIN",
        "category": ""
      }
    },
    {
      "type": "Feature",
      "geometry": {
        "type": "Point",
        "coordinates": [
          -87.6558462,
          41.9734307
        ]
      },
      "properties": {
        "group_id": "chinese-mutual-aid",
        "name": "Unknown Group",
        "location_name": "",
        "address": "1016 W Argyle St",
        "verification_status": "UNCERTAIN",
        "category": ""
      }
    },
    {
      "type": "Feature",
      "geometry": {
        "type": "Point",
        "coordinates": [
          -87.6291299,
          41.8829338
        ]
      },
      "properties": {
        "group_id": "cvls",
        "name": "Unknown Group",
        "location_name": "",
        "address": "33 N Dearborn St",
        "verification_status": "UNCERTAIN",
        "category": ""
      }
    },
    {
      "type": "Feature",
      "geometry": {
        "type": "Point",
        "coordinates": [
          -87.716317,
          41.887647
        ]
      },
      "properties": {
        "group_id": "garfield-park-cc",
        "name": "Unknown Group",
        "location_name": "",
        "address": "300 N Central Park Ave",
        "verification_status": "UNCERTAIN",
        "category": ""
      }
    },
    {
      "type": "Feature",
      "geometry": {
        "type": "Point",
        "coordinates": [
          -87.6595159,
          41.8277727
        ]
      },
      "properties": {
        "group_id": "love-fridge-chicago",
        "name": "Unknown Group",
        "location_name": "The Fridge on Marz",
        "address": "3630 S Iron St",
        "verification_status": "UNCERTAIN",
        "category": ""
      }
    },
    {
      "type": "Feature",
      "geometry": {
        "type": "Point",
        "coordinates": [
          -87.5313533,
          41.6916639
        ]
      },
      "properties": {
        "group_id": "love-fridge-chicago",
        "name": "Unknown Group",
        "location_name": "The Kindness Korner",
        "address": "11201 S Ave G",
        "verification_status": "UNCERTAIN",
        "category": ""
      }
    },
    {
      "type": "Feature",
      "geometry": {
        "type": "Point",
        "coordinates": [
          -87.6946065,
          41.8536568
        ]
      },
      "properties": {
        "group_id": "love-fridge-chicago",
        "name": "Unknown Group",
        "location_name": "The Love Shack",
        "address": "2751 W 21st St",
        "verification_status": "UNCERTAIN",
        "category": ""
      }
    },
    {
      "type": "Feature",
      "geometry": {
        "type": "Point",
        "coordinates": [
          -87.7074257,
          41.9174776
        ]
      },
      "properties": {
        "group_id": "love-fridge-chicago",
        "name": "Unknown Group",
        "location_name": "BInk Food Bank",
        "address": "3206 W Armitage Ave",
        "verification_status": "UNCERTAIN",
        "category": ""
      }
    },
    {
      "type": "Feature",
      "geometry": {
        "type": "Point",
        "coordinates": [
          -87.6620178,
          41.8562604
        ]
      },
      "properties": {
        "group_id": "love-fridge-chicago",
        "name": "Unknown Group",
        "location_name": "Comida Para el Pueblo",
        "address": "1855 S Blue Island Ave",
        "verification_status": "UNCERTAIN",
        "category": ""
      }
    },
    {
      "type": "Feature",
      "geometry": {
        "type": "Point",
        "coordinates": [
          -87.6497246,
          41.7785766
        ]
      },
      "properties": {
        "group_id": "love-fridge-chicago",
        "name": "Unknown Group",
        "location_name": "Getting Grown Collective",
        "address": "6344 S Morgan St",
        "verification_status": "UNCERTAIN",
        "category": ""
      }
    },
    {
      "type": "Feature",
      "geometry": {
        "type": "Point",
        "coordinates": [
          -87.7222975,
          41.7730604
        ]
      },
      "properties": {
        "group_id": "love-fridge-chicago",
        "name": "Unknown Group",
        "location_name": "Good Neighbor Love Fridge",
        "address": "6601 S Pulaski Rd",
        "verification_status": "UNCERTAIN",
        "category": ""
      }
    },
    {
      "type": "Feature",
      "geometry": {
        "type": "Point",
        "coordinates": [
          -87.6151687,
          41.7603438
        ]
      },
      "properties": {
        "group_id": "love-fridge-chicago",
        "name": "Unknown Group",
        "location_name": "Sacred Keepers Love Fridge",
        "address": "4445 S King Dr",
        "verification_status": "UNCERTAIN",
        "category": ""
      }
    },
    {
      "type": "Feature",
      "geometry": {
        "type": "Point",
        "coordinates": [
          -87.56404,
          41.7606293
        ]
      },
      "properties": {
        "group_id": "love-fridge-chicago",
        "name": "Unknown Group",
        "location_name": "South Shore Love Fridge",
        "address": "2465 E 74th St",
        "verification_status": "UNCERTAIN",
        "category": ""
      }
    },
    {
      "type": "Feature",
      "geometry": {
        "type": "Point",
        "coordinates": [
          -87.6719365,
          41.8000647
        ]
      },
      "properties": {
        "group_id": "love-fridge-chicago",
        "name": "Unknown Group",
        "location_name": "Star Farm Love Fridge",
        "address": "5155 S Wolcott Ave",
        "verification_status": "UNCERTAIN",
        "category": ""
      }
    },
    {
      "type": "Feature",
      "geometry": {
        "type": "Point",
        "coordinates": [
          -87.7161716,
          41.8629262
        ]
      },
      "properties": {
        "group_id": "love-fridge-chicago",
        "name": "Unknown Group",
        "location_name": "Stone Temple Fridge",
        "address": "3622 W Douglas Blvd",
        "verification_status": "UNCERTAIN",
        "category": ""
      }
    },
    {
      "type": "Feature",
      "geometry": {
        "type": "Point",
        "coordinates": [
          -87.65306649535067,
          41.83073905184259
        ]
      },
      "properties": {
        "group_id": "urban-growers-collective",
        "name": "Urban Growers Collective",
        "location_name": "Neighborhood Centroid",
        "address": "Bridgeport/Armour",
        "verification_status": "VERIFIED",
        "category": "Food Security"
      }
    },
    {
      "type": "Feature",
      "geometry": {
        "type": "Point",
        "coordinates": [
          -87.59212148771108,
          41.77335999473483
        ]
      },
      "properties": {
        "group_id": "southside-nature-play",
        "name": "Southside Nature Play",
        "location_name": "Neighborhood Centroid",
        "address": "Woodlawn",
        "verification_status": "LIKELY_ACTIVE",
        "category": "Environmental & Green Space"
      }
    },
    {
      "type": "Feature",
      "geometry": {
        "type": "Point",
        "coordinates": [
          -87.61769798367521,
          41.82162676564981
        ]
      },
      "properties": {
        "group_id": "lake-meadows-park-advisory-council",
        "name": "Lake Meadows Park Advisory Council",
        "location_name": "Neighborhood Centroid",
        "address": "Bronzeville",
        "verification_status": "UNCERTAIN",
        "category": "Environmental & Green Space"
      }
    },
    {
      "type": "Feature",
      "geometry": {
        "type": "Point",
        "coordinates": [
          -87.61556516944663,
          41.819746540462454
        ]
      },
      "properties": {
        "group_id": "mouse-arts--letters-social-club",
        "name": "Mouse Arts & Letters Social Club",
        "location_name": "Neighborhood Centroid",
        "address": "Bronzeville",
        "verification_status": "UNCERTAIN",
        "category": "Arts & Culture"
      }
    },
    {
      "type": "Feature",
      "geometry": {
        "type": "Point",
        "coordinates": [
          -87.70900380147287,
          41.94135535495221
        ]
      },
      "properties": {
        "group_id": "avondale-mutual-aid",
        "name": "Avondale Mutual Aid",
        "location_name": "Neighborhood Centroid",
        "address": "Avondale",
        "verification_status": "VERIFIED",
        "category": "Mutual Aid - General"
      }
    },
    {
      "type": "Feature",
      "geometry": {
        "type": "Point",
        "coordinates": [
          -87.66113247380538,
          41.98701788114016
        ]
      },
      "properties": {
        "group_id": "edgewater-mutual-aid-eman",
        "name": "Edgewater Mutual Aid (EMAN)",
        "location_name": "Neighborhood Centroid",
        "address": "Edgewater",
        "verification_status": "VERIFIED",
        "category": "Mutual Aid - General"
      }
    },
    {
      "type": "Feature",
      "geometry": {
        "type": "Point",
        "coordinates": [
          -87.68881298151584,
          42.042711760731564
        ]
      },
      "properties": {
        "group_id": "evanston-community-fridges",
        "name": "Evanston Community Fridges",
        "location_name": "Neighborhood Centroid",
        "address": "Evanston",
        "verification_status": "VERIFIED",
        "category": "Food Security"
      }
    },
    {
      "type": "Feature",
      "geometry": {
        "type": "Point",
        "coordinates": [
          -87.70619495645659,
          41.919327615579405
        ]
      },
      "properties": {
        "group_id": "logan-square-mutual-aid",
        "name": "Logan Square Mutual Aid",
        "location_name": "Neighborhood Centroid",
        "address": "Logan Square",
        "verification_status": "VERIFIED",
        "category": "Mutual Aid - General"
      }
    },
    {
      "type": "Feature",
      "geometry": {
        "type": "Point",
        "coordinates": [
          -87.66398558206272,
          41.85468516771367
        ]
      },
      "properties": {
        "group_id": "pilsen-solidarity-network",
        "name": "Pilsen Solidarity Network",
        "location_name": "Neighborhood Centroid",
        "address": "Pilsen",
        "verification_status": "VERIFIED",
        "category": "Mutual Aid - General"
      }
    },
    {
      "type": "Feature",
      "geometry": {
        "type": "Point",
        "coordinates": [
          -87.76596732773994,
          41.89945952909741
        ]
      },
      "properties": {
        "group_id": "westside-mutual-aid",
        "name": "Westside Mutual Aid",
        "location_name": "Neighborhood Centroid",
        "address": "Austin",
        "verification_status": "VERIFIED",
        "category": "Mutual Aid - General"
      }
    },
    {
      "type": "Feature",
      "geometry": {
        "type": "Point",
        "coordinates": [
          -87.72882242809891,
          41.96679016444937
        ]
      },
      "properties": {
        "group_id": "albany-park-mutual-aid",
        "name": "Albany Park Mutual Aid",
        "location_name": "Neighborhood Centroid",
        "address": "Albany Park",
        "verification_status": "VERIFIED",
        "category": "Mutual Aid - General"
      }
    },
    {
      "type": "Feature",
      "geometry": {
        "type": "Point",
        "coordinates": [
          -87.7218648608659,
          41.90035338155784
        ]
      },
      "properties": {
        "group_id": "hp-solidarity-network",
        "name": "HP Solidarity Network",
        "location_name": "Neighborhood Centroid",
        "address": "Humboldt Park",
        "verification_status": "VERIFIED",
        "category": "Mutual Aid - General"
      }
    },
    {
      "type": "Feature",
      "geometry": {
        "type": "Point",
        "coordinates": [
          -87.72803422713386,
          41.95390252225382
        ]
      },
      "properties": {
        "group_id": "irving-park-mutual-aid",
        "name": "Irving Park Mutual Aid",
        "location_name": "Neighborhood Centroid",
        "address": "Irving Park",
        "verification_status": "VERIFIED",
        "category": "Mutual Aid - General"
      }
    },
    {
      "type": "Feature",
      "geometry": {
        "type": "Point",
        "coordinates": [
          -87.7533139702071,
          41.96996833130078
        ]
      },
      "properties": {
        "group_id": "mayfair-mutual-aid",
        "name": "Mayfair Mutual Aid",
        "location_name": "Neighborhood Centroid",
        "address": "Mayfair",
        "verification_status": "VERIFIED",
        "category": "Mutual Aid - General"
      }
    },
    {
      "type": "Feature",
      "geometry": {
        "type": "Point",
        "coordinates": [
          -87.66456255015243,
          41.99691701040156
        ]
      },
      "properties": {
        "group_id": "po-box-collective",
        "name": "PO Box Collective",
        "location_name": "Neighborhood Centroid",
        "address": "Rogers Park",
        "verification_status": "VERIFIED",
        "category": "Social Justice"
      }
    },
    {
      "type": "Feature",
      "geometry": {
        "type": "Point",
        "coordinates": [
          -87.62000527892879,
          41.75784359340538
        ]
      },
      "properties": {
        "group_id": "southside-together",
        "name": "Southside Together",
        "location_name": "Neighborhood Centroid",
        "address": "South Side",
        "verification_status": "VERIFIED",
        "category": "Social Justice"
      }
    },
    {
      "type": "Feature",
      "geometry": {
        "type": "Point",
        "coordinates": [
          -87.73848817659075,
          41.88293709318902
        ]
      },
      "properties": {
        "group_id": "southwest-collective",
        "name": "Southwest Collective",
        "location_name": "Neighborhood Centroid",
        "address": "Southwest Side",
        "verification_status": "VERIFIED",
        "category": "Community Advocacy"
      }
    },
    {
      "type": "Feature",
      "geometry": {
        "type": "Point",
        "coordinates": [
          -87.62182105498748,
          41.75990804634695
        ]
      },
      "properties": {
        "group_id": "brave-space-alliance",
        "name": "Brave Space Alliance",
        "location_name": "Neighborhood Centroid",
        "address": "South Side",
        "verification_status": "VERIFIED",
        "category": "Healthcare & Wellness"
      }
    },
    {
      "type": "Feature",
      "geometry": {
        "type": "Point",
        "coordinates": [
          -87.62068927133545,
          41.76036681052648
        ]
      },
      "properties": {
        "group_id": "chicago-united-solidarity-project-cusp",
        "name": "Chicago United Solidarity Project (CUSP)",
        "location_name": "Neighborhood Centroid",
        "address": "South Side",
        "verification_status": "VERIFIED",
        "category": "Mutual Aid - General"
      }
    },
    {
      "type": "Feature",
      "geometry": {
        "type": "Point",
        "coordinates": [
          -87.65948963554713,
          41.97336231018536
        ]
      },
      "properties": {
        "group_id": "chinese-mutual-aid-association-cmaa",
        "name": "Chinese Mutual Aid Association (CMAA)",
        "location_name": "Neighborhood Centroid",
        "address": "Uptown/Argyle",
        "verification_status": "VERIFIED",
        "category": "Migrant & Immigrant Support"
      }
    },
    {
      "type": "Feature",
      "geometry": {
        "type": "Point",
        "coordinates": [
          -87.6187139056121,
          41.75867921254688
        ]
      },
      "properties": {
        "group_id": "market-box-chicago",
        "name": "Market Box Chicago",
        "location_name": "Neighborhood Centroid",
        "address": "South Side",
        "verification_status": "VERIFIED",
        "category": "Food Security"
      }
    },
    {
      "type": "Feature",
      "geometry": {
        "type": "Point",
        "coordinates": [
          -87.64694566522917,
          41.94226189034423
        ]
      },
      "properties": {
        "group_id": "lakeview-lincoln-park-mutual-aid",
        "name": "Lakeview/Lincoln Park Mutual Aid",
        "location_name": "Neighborhood Centroid",
        "address": "Lakeview",
        "verification_status": "VERIFIED",
        "category": "Mutual Aid - General"
      }
    },
    {
      "type": "Feature",
      "geometry": {
        "type": "Point",
        "coordinates": [
          -87.74120218785805,
          41.88084703369259
        ]
      },
      "properties": {
        "group_id": "northwest-side-solidarity-network",
        "name": "Northwest Side Solidarity Network",
        "location_name": "Neighborhood Centroid",
        "address": "Northwest Side",
        "verification_status": "VERIFIED",
        "category": "Mutual Aid - General"
      }
    },
    {
      "type": "Feature",
      "geometry": {
        "type": "Point",
        "coordinates": [
          -87.66265893731303,
          41.9987131556879
        ]
      },
      "properties": {
        "group_id": "one-northside",
        "name": "ONE Northside",
        "location_name": "Neighborhood Centroid",
        "address": "Rogers Park",
        "verification_status": "VERIFIED",
        "category": "Community Advocacy"
      }
    },
    {
      "type": "Feature",
      "geometry": {
        "type": "Point",
        "coordinates": [
          -87.71774059020358,
          41.88407907530534
        ]
      },
      "properties": {
        "group_id": "garfield-park-community-council",
        "name": "Garfield Park Community Council",
        "location_name": "Neighborhood Centroid",
        "address": "Garfield Park",
        "verification_status": "VERIFIED",
        "category": "Food Security / Community Development"
      }
    },
    {
      "type": "Feature",
      "geometry": {
        "type": "Point",
        "coordinates": [
          -87.7381392979307,
          41.88378566785765
        ]
      },
      "properties": {
        "group_id": "john-walt-foundation",
        "name": "John Walt Foundation",
        "location_name": "Neighborhood Centroid",
        "address": "West Side",
        "verification_status": "VERIFIED",
        "category": "Food Security"
      }
    },
    {
      "type": "Feature",
      "geometry": {
        "type": "Point",
        "coordinates": [
          -87.6477868348479,
          41.94481852128401
        ]
      },
      "properties": {
        "group_id": "center-on-halsted",
        "name": "Center on Halsted",
        "location_name": "Neighborhood Centroid",
        "address": "Lakeview",
        "verification_status": "VERIFIED",
        "category": "LGBTQ+ Support"
      }
    },
    {
      "type": "Feature",
      "geometry": {
        "type": "Point",
        "coordinates": [
          -87.73914053962555,
          41.87991171689055
        ]
      },
      "properties": {
        "group_id": "chicago-environmental-justice-network-cejn",
        "name": "Chicago Environmental Justice Network (CEJN)",
        "location_name": "Neighborhood Centroid",
        "address": "South and West Sides",
        "verification_status": "VERIFIED",
        "category": "Environmental Justice"
      }
    },
    {
      "type": "Feature",
      "geometry": {
        "type": "Point",
        "coordinates": [
          -87.73941014397151,
          41.882701731911226
        ]
      },
      "properties": {
        "group_id": "sarah-s-inn",
        "name": "Sarah's Inn",
        "location_name": "Neighborhood Centroid",
        "address": "West Side",
        "verification_status": "VERIFIED",
        "category": "Domestic Violence Support"
      }
    },
    {
      "type": "Feature",
      "geometry": {
        "type": "Point",
        "coordinates": [
          -87.76680364953249,
          41.89762802619152
        ]
      },
      "properties": {
        "group_id": "westside-community-development-collaboration",
        "name": "Westside Community Development Collaboration",
        "location_name": "Neighborhood Centroid",
        "address": "Austin",
        "verification_status": "VERIFIED",
        "category": "Community Development"
      }
    },
    {
      "type": "Feature",
      "geometry": {
        "type": "Point",
        "coordinates": [
          -87.59458697559003,
          41.793823491420994
        ]
      },
      "properties": {
        "group_id": "uchrp-u-of-chicago-harm-reduction-project",
        "name": "UCHRP (U of Chicago Harm Reduction Project)",
        "location_name": "Neighborhood Centroid",
        "address": "Hyde Park / South Side",
        "verification_status": "VERIFIED",
        "category": "Harm Reduction"
      }
    },
    {
      "type": "Feature",
      "geometry": {
        "type": "Point",
        "coordinates": [
          -87.65929503442982,
          41.97567321293659
        ]
      },
      "properties": {
        "group_id": "american-indian-center-chicago",
        "name": "American Indian Center Chicago",
        "location_name": "Neighborhood Centroid",
        "address": "Uptown / Citywide",
        "verification_status": "VERIFIED",
        "category": "Indigenous Solidarity"
      }
    },
    {
      "type": "Feature",
      "geometry": {
        "type": "Point",
        "coordinates": [
          -87.59518661641299,
          41.795794216417605
        ]
      },
      "properties": {
        "group_id": "hyde-park-art-center",
        "name": "Hyde Park Art Center",
        "location_name": "Neighborhood Centroid",
        "address": "Hyde Park",
        "verification_status": "VERIFIED",
        "category": "Arts & Culture"
      }
    },
    {
      "type": "Feature",
      "geometry": {
        "type": "Point",
        "coordinates": [
          -87.621756460032,
          41.69299272708771
        ]
      },
      "properties": {
        "group_id": "roseland-ceasefire",
        "name": "Roseland Ceasefire",
        "location_name": "Neighborhood Centroid",
        "address": "Roseland",
        "verification_status": "VERIFIED",
        "category": "Community Advocacy"
      }
    },
    {
      "type": "Feature",
      "geometry": {
        "type": "Point",
        "coordinates": [
          -87.61994834688778,
          41.693674665460776
        ]
      },
      "properties": {
        "group_id": "sheldon-heights-coc-food-pantry",
        "name": "Sheldon Heights CoC Food Pantry",
        "location_name": "Neighborhood Centroid",
        "address": "Roseland",
        "verification_status": "VERIFIED",
        "category": "Food Security"
      }
    },
    {
      "type": "Feature",
      "geometry": {
        "type": "Point",
        "coordinates": [
          -87.66065090215123,
          41.74995366021872
        ]
      },
      "properties": {
        "group_id": "st-sabina-church-food-pantry",
        "name": "St. Sabina Church Food Pantry",
        "location_name": "Neighborhood Centroid",
        "address": "Auburn Gresham",
        "verification_status": "VERIFIED",
        "category": "Food Security"
      }
    },
    {
      "type": "Feature",
      "geometry": {
        "type": "Point",
        "coordinates": [
          -87.68986354007919,
          42.04436892790199
        ]
      },
      "properties": {
        "group_id": "evanston-community-cares",
        "name": "Evanston Community Cares",
        "location_name": "Neighborhood Centroid",
        "address": "Evanston",
        "verification_status": "VERIFIED",
        "category": "Mutual Aid - General"
      }
    },
    {
      "type": "Feature",
      "geometry": {
        "type": "Point",
        "coordinates": [
          -87.68839890854716,
          42.04601863080672
        ]
      },
      "properties": {
        "group_id": "evanston-skokie-mutual-aid-network",
        "name": "Evanston/Skokie Mutual Aid Network",
        "location_name": "Neighborhood Centroid",
        "address": "Evanston",
        "verification_status": "VERIFIED",
        "category": "Mutual Aid - General"
      }
    },
    {
      "type": "Feature",
      "geometry": {
        "type": "Point",
        "coordinates": [
          -87.6209243108005,
          41.69340998456509
        ]
      },
      "properties": {
        "group_id": "greater-roseland-west-pullman-food-network",
        "name": "Greater Roseland West Pullman Food Network",
        "location_name": "Neighborhood Centroid",
        "address": "Roseland",
        "verification_status": "VERIFIED",
        "category": "Food Security"
      }
    },
    {
      "type": "Feature",
      "geometry": {
        "type": "Point",
        "coordinates": [
          -87.66310829528786,
          41.74932845892959
        ]
      },
      "properties": {
        "group_id": "target-area-development-corporation",
        "name": "Target Area Development Corporation",
        "location_name": "Neighborhood Centroid",
        "address": "Auburn Gresham",
        "verification_status": "VERIFIED",
        "category": "Food Security"
      }
    },
    {
      "type": "Feature",
      "geometry": {
        "type": "Point",
        "coordinates": [
          -87.66484756661846,
          41.75057258774508
        ]
      },
      "properties": {
        "group_id": "greater-auburn-gresham-development-corporation-gagdc",
        "name": "Greater Auburn Gresham Development Corporation (GAGDC)",
        "location_name": "Neighborhood Centroid",
        "address": "Auburn Gresham",
        "verification_status": "VERIFIED",
        "category": "Community Development"
      }
    },
    {
      "type": "Feature",
      "geometry": {
        "type": "Point",
        "coordinates": [
          -87.6242097193815,
          41.69356231195669
        ]
      },
      "properties": {
        "group_id": "youth-peace-center-of-roseland",
        "name": "Youth Peace Center of Roseland",
        "location_name": "Neighborhood Centroid",
        "address": "Roseland",
        "verification_status": "VERIFIED",
        "category": "Youth & Education"
      }
    },
    {
      "type": "Feature",
      "geometry": {
        "type": "Point",
        "coordinates": [
          -87.62009420772537,
          41.691635723730144
        ]
      },
      "properties": {
        "group_id": "peaceplayers-chicago",
        "name": "PeacePlayers Chicago",
        "location_name": "Neighborhood Centroid",
        "address": "Roseland",
        "verification_status": "VERIFIED",
        "category": "Youth & Education"
      }
    },
    {
      "type": "Feature",
      "geometry": {
        "type": "Point",
        "coordinates": [
          -87.59076075894863,
          41.77420040857576
        ]
      },
      "properties": {
        "group_id": "southside-nature-play",
        "name": "Southside Nature Play",
        "location_name": "Neighborhood Centroid",
        "address": "Woodlawn",
        "verification_status": "LIKELY_ACTIVE",
        "category": "Environmental & Green Space"
      }
    }
  ]
}