{
  "type": "FeatureCollection",
  "features": [
    {
      "type": "Feature",
      "geometry": {
        "type": "Point",
        "coordinates": [
          -87.654278,
          41.764971
        ]
      },
      "properties": {
        "group_id": "cooperation-racine",
        "name": "Cooperation Racine",
        "location_name": "",
        "address": "1201 W 71st St",
        "verification_status": "VERIFIED",
        "category": "Worker Co-ops & Economic Justice"
      }
    },
    {
      "type": "Feature",
      "geometry": {
        "type": "Point",
        "coordinates": [
          -87.6411518,
          41.8378541
        ]
      },
      "properties": {
        "group_id": "mouse-arts-letters",
        "name": "mouse-arts-letters",
        "location_name": "",
        "address": "555 W 31st St",
        "verification_status": "UNCERTAIN",
        "category": ""
      }
    },
    {
      "type": "Feature",
      "geometry": {
        "type": "Point",
        "coordinates": [
          -87.6565482,
          41.8309771
        ]
      },
      "properties": {
        "group_id": "bridgeport-alliance",
        "name": "Bridgeport Alliance",
        "location_name": "",
        "address": "1200 W 35th St",
        "verification_status": "VERIFIED",
        "category": "Community Advocacy"
      }
    },
    {
      "type": "Feature",
      "geometry": {
        "type": "Point",
        "coordinates": [
          -87.6238726,
          41.7378107
        ]
      },
      "properties": {
        "group_id": "chatham-avalon-ministries",
        "name": "Chatham-Avalon Ministries",
        "location_name": "",
        "address": "8601 S State St",
        "verification_status": "VERIFIED",
        "category": "Food Security"
      }
    },
    {
      "type": "Feature",
      "geometry": {
        "type": "Point",
        "coordinates": [
          -87.6211704,
          41.6964894
        ]
      },
      "properties": {
        "group_id": "roseland-christian-ministries",
        "name": "Roseland Christian Ministries",
        "location_name": "",
        "address": "10858 S Michigan Ave",
        "verification_status": "VERIFIED",
        "category": "Food Security"
      }
    },
    {
      "type": "Feature",
      "geometry": {
        "type": "Point",
        "coordinates": [
          -87.6418495,
          41.68791
        ]
      },
      "properties": {
        "group_id": "sheldon-heights-pantry",
        "name": "sheldon-heights-pantry",
        "location_name": "",
        "address": "11325 S Halsted St",
        "verification_status": "UNCERTAIN",
        "category": ""
      }
    },
    {
      "type": "Feature",
      "geometry": {
        "type": "Point",
        "coordinates": [
          -87.6519522,
          41.7507436
        ]
      },
      "properties": {
        "group_id": "st-sabina-pantry",
        "name": "st-sabina-pantry",
        "location_name": "",
        "address": "1120 W 79th St",
        "verification_status": "UNCERTAIN",
        "category": ""
      }
    },
    {
      "type": "Feature",
      "geometry": {
        "type": "Point",
        "coordinates": [
          -87.6558462,
          41.9734307
        ]
      },
      "properties": {
        "group_id": "chinese-mutual-aid",
        "name": "chinese-mutual-aid",
        "location_name": "",
        "address": "1016 W Argyle St",
        "verification_status": "UNCERTAIN",
        "category": ""
      }
    },
    {
      "type": "Feature",
      "geometry": {
        "type": "Point",
        "coordinates": [
          -87.6291299,
          41.8829338
        ]
      },
      "properties": {
        "group_id": "cvls",
        "name": "cvls",
        "location_name": "",
        "address": "33 N Dearborn St",
        "verification_status": "UNCERTAIN",
        "category": ""
      }
    },
    {
      "type": "Feature",
      "geometry": {
        "type": "Point",
        "coordinates": [
          -87.716317,
          41.887647
        ]
      },
      "properties": {
        "group_id": "garfield-park-cc",
        "name": "garfield-park-cc",
        "location_name": "",
        "address": "300 N Central Park Ave",
        "verification_status": "UNCERTAIN",
        "category": ""
      }
    },
    {
      "type": "Feature",
      "geometry": {
        "type": "Point",
        "coordinates": [
          -87.6595159,
          41.8277727
        ]
      },
      "properties": {
        "group_id": "love-fridge-chicago",
        "name": "Love Fridge Chicago",
        "location_name": "The Fridge on Marz",
        "address": "3630 S Iron St",
        "verification_status": "VERIFIED",
        "category": "Mutual Aid / Community Fridges"
      }
    },
    {
      "type": "Feature",
      "geometry": {
        "type": "Point",
        "coordinates": [
          -87.5313533,
          41.6916639
        ]
      },
      "properties": {
        "group_id": "love-fridge-chicago",
        "name": "Love Fridge Chicago",
        "location_name": "The Kindness Korner",
        "address": "11201 S Ave G",
        "verification_status": "VERIFIED",
        "category": "Mutual Aid / Community Fridges"
      }
    },
    {
      "type": "Feature",
      "geometry": {
        "type": "Point",
        "coordinates": [
          -87.6946065,
          41.8536568
        ]
      },
      "properties": {
        "group_id": "love-fridge-chicago",
        "name": "Love Fridge Chicago",
        "location_name": "The Love Shack",
        "address": "2751 W 21st St",
        "verification_status": "VERIFIED",
        "category": "Mutual Aid / Community Fridges"
      }
    },
    {
      "type": "Feature",
      "geometry": {
        "type": "Point",
        "coordinates": [
          -87.7074257,
          41.9174776
        ]
      },
      "properties": {
        "group_id": "love-fridge-chicago",
        "name": "Love Fridge Chicago",
        "location_name": "BInk Food Bank",
        "address": "3206 W Armitage Ave",
        "verification_status": "VERIFIED",
        "category": "Mutual Aid / Community Fridges"
      }
    },
    {
      "type": "Feature",
      "geometry": {
        "type": "Point",
        "coordinates": [
          -87.6620178,
          41.8562604
        ]
      },
      "properties": {
        "group_id": "love-fridge-chicago",
        "name": "Love Fridge Chicago",
        "location_name": "Comida Para el Pueblo",
        "address": "1855 S Blue Island Ave",
        "verification_status": "VERIFIED",
        "category": "Mutual Aid / Community Fridges"
      }
    },
    {
      "type": "Feature",
      "geometry": {
        "type": "Point",
        "coordinates": [
          -87.6497246,
          41.7785766
        ]
      },
      "properties": {
        "group_id": "love-fridge-chicago",
        "name": "Love Fridge Chicago",
        "location_name": "Getting Grown Collective",
        "address": "6344 S Morgan St",
        "verification_status": "VERIFIED",
        "category": "Mutual Aid / Community Fridges"
      }
    },
    {
      "type": "Feature",
      "geometry": {
        "type": "Point",
        "coordinates": [
          -87.7222975,
          41.7730604
        ]
      },
      "properties": {
        "group_id": "love-fridge-chicago",
        "name": "Love Fridge Chicago",
        "location_name": "Good Neighbor Love Fridge",
        "address": "6601 S Pulaski Rd",
        "verification_status": "VERIFIED",
        "category": "Mutual Aid / Community Fridges"
      }
    },
    {
      "type": "Feature",
      "geometry": {
        "type": "Point",
        "coordinates": [
          -87.6151687,
          41.7603438
        ]
      },
      "properties": {
        "group_id": "love-fridge-chicago",
        "name": "Love Fridge Chicago",
        "location_name": "Sacred Keepers Love Fridge",
        "address": "4445 S King Dr",
        "verification_status": "VERIFIED",
        "category": "Mutual Aid / Community Fridges"
      }
    },
    {
      "type": "Feature",
      "geometry": {
        "type": "Point",
        "coordinates": [
          -87.56404,
          41.7606293
        ]
      },
      "properties": {
        "group_id": "love-fridge-chicago",
        "name": "Love Fridge Chicago",
        "location_name": "South Shore Love Fridge",
        "address": "2465 E 74th St",
        "verification_status": "VERIFIED",
        "category": "Mutual Aid / Community Fridges"
      }
    },
    {
      "type": "Feature",
      "geometry": {
        "type": "Point",
        "coordinates": [
          -87.6719365,
          41.8000647
        ]
      },
      "properties": {
        "group_id": "love-fridge-chicago",
        "name": "Love Fridge Chicago",
        "location_name": "Star Farm Love Fridge",
        "address": "5155 S Wolcott Ave",
        "verification_status": "VERIFIED",
        "category": "Mutual Aid / Community Fridges"
      }
    },
    {
      "type": "Feature",
      "geometry": {
        "type": "Point",
        "coordinates": [
          -87.7161716,
          41.8629262
        ]
      },
      "properties": {
        "group_id": "love-fridge-chicago",
        "name": "Love Fridge Chicago",
        "location_name": "Stone Temple Fridge",
        "address": "3622 W Douglas Blvd",
        "verification_status": "VERIFIED",
        "category": "Mutual Aid / Community Fridges"
      }
    },
    {
      "type": "Feature",
      "geometry": {
        "type": "Point",
        "coordinates": [
          -87.6492962360669,
          41.83063267412184
        ]
      },
      "properties": {
        "group_id": "urban-growers-collective",
        "name": "Urban Growers Collective",
        "location_name": "Neighbourhood Centroid",
        "address": "Bridgeport/Armour",
        "verification_status": "VERIFIED",
        "category": "Food Security"
      }
    },
    {
      "type": "Feature",
      "geometry": {
        "type": "Point",
        "coordinates": [
          -87.59219379224334,
          41.77636559038103
        ]
      },
      "properties": {
        "group_id": "southside-nature-play",
        "name": "Southside Nature Play",
        "location_name": "Neighbourhood Centroid",
        "address": "Woodlawn",
        "verification_status": "LIKELY_ACTIVE",
        "category": "Environmental & Green Space"
      }
    },
    {
      "type": "Feature",
      "geometry": {
        "type": "Point",
        "coordinates": [
          -87.61805976598474,
          41.821878407337856
        ]
      },
      "properties": {
        "group_id": "lake-meadows-park-advisory-council",
        "name": "Lake Meadows Park Advisory Council",
        "location_name": "Neighbourhood Centroid",
        "address": "Bronzeville",
        "verification_status": "UNCERTAIN",
        "category": "Environmental & Green Space"
      }
    },
    {
      "type": "Feature",
      "geometry": {
        "type": "Point",
        "coordinates": [
          -87.61736401445437,
          41.82163650662085
        ]
      },
      "properties": {
        "group_id": "mouse-arts-letters-social-club",
        "name": "Mouse Arts & Letters Social Club",
        "location_name": "Neighbourhood Centroid",
        "address": "Bronzeville",
        "verification_status": "UNCERTAIN",
        "category": "Arts & Culture"
      }
    },
    {
      "type": "Feature",
      "geometry": {
        "type": "Point",
        "coordinates": [
          -87.70430981223149,
          41.941584590192555
        ]
      },
      "properties": {
        "group_id": "avondale-mutual-aid",
        "name": "Avondale Mutual Aid",
        "location_name": "Neighbourhood Centroid",
        "address": "Avondale",
        "verification_status": "VERIFIED",
        "category": "Mutual Aid - General"
      }
    },
    {
      "type": "Feature",
      "geometry": {
        "type": "Point",
        "coordinates": [
          -87.65732013493093,
          41.988873154596675
        ]
      },
      "properties": {
        "group_id": "edgewater-mutual-aid-eman",
        "name": "Edgewater Mutual Aid (EMAN)",
        "location_name": "Neighbourhood Centroid",
        "address": "Edgewater",
        "verification_status": "VERIFIED",
        "category": "Mutual Aid - General"
      }
    },
    {
      "type": "Feature",
      "geometry": {
        "type": "Point",
        "coordinates": [
          -87.69014587263862,
          42.04502697451096
        ]
      },
      "properties": {
        "group_id": "evanston-community-fridges",
        "name": "Evanston Community Fridges",
        "location_name": "Neighbourhood Centroid",
        "address": "Evanston",
        "verification_status": "VERIFIED",
        "category": "Food Security"
      }
    },
    {
      "type": "Feature",
      "geometry": {
        "type": "Point",
        "coordinates": [
          -87.70824142225528,
          41.92225352150959
        ]
      },
      "properties": {
        "group_id": "logan-square-mutual-aid",
        "name": "Logan Square Mutual Aid",
        "location_name": "Neighbourhood Centroid",
        "address": "Logan Square",
        "verification_status": "VERIFIED",
        "category": "Mutual Aid - General"
      }
    },
    {
      "type": "Feature",
      "geometry": {
        "type": "Point",
        "coordinates": [
          -87.66424102794959,
          41.85333413620734
        ]
      },
      "properties": {
        "group_id": "pilsen-solidarity-network",
        "name": "Pilsen Solidarity Network",
        "location_name": "Neighbourhood Centroid",
        "address": "Pilsen",
        "verification_status": "VERIFIED",
        "category": "Mutual Aid - General"
      }
    },
    {
      "type": "Feature",
      "geometry": {
        "type": "Point",
        "coordinates": [
          -87.76621339860824,
          41.89745513994974
        ]
      },
      "properties": {
        "group_id": "westside-mutual-aid",
        "name": "Westside Mutual Aid",
        "location_name": "Neighbourhood Centroid",
        "address": "Austin",
        "verification_status": "VERIFIED",
        "category": "Mutual Aid - General"
      }
    },
    {
      "type": "Feature",
      "geometry": {
        "type": "Point",
        "coordinates": [
          -87.72768660251647,
          41.96900590033495
        ]
      },
      "properties": {
        "group_id": "albany-park-mutual-aid",
        "name": "Albany Park Mutual Aid",
        "location_name": "Neighbourhood Centroid",
        "address": "Albany Park",
        "verification_status": "VERIFIED",
        "category": "Mutual Aid - General"
      }
    },
    {
      "type": "Feature",
      "geometry": {
        "type": "Point",
        "coordinates": [
          -87.71908614296197,
          41.900858203380125
        ]
      },
      "properties": {
        "group_id": "hp-solidarity-network",
        "name": "HP Solidarity Network",
        "location_name": "Neighbourhood Centroid",
        "address": "Humboldt Park",
        "verification_status": "VERIFIED",
        "category": "Mutual Aid - General"
      }
    },
    {
      "type": "Feature",
      "geometry": {
        "type": "Point",
        "coordinates": [
          -87.72725657044762,
          41.95390312484616
        ]
      },
      "properties": {
        "group_id": "irving-park-mutual-aid",
        "name": "Irving Park Mutual Aid",
        "location_name": "Neighbourhood Centroid",
        "address": "Irving Park",
        "verification_status": "VERIFIED",
        "category": "Mutual Aid - General"
      }
    },
    {
      "type": "Feature",
      "geometry": {
        "type": "Point",
        "coordinates": [
          -87.75603929053459,
          41.9670456225701
        ]
      },
      "properties": {
        "group_id": "mayfair-mutual-aid",
        "name": "Mayfair Mutual Aid",
        "location_name": "Neighbourhood Centroid",
        "address": "Mayfair",
        "verification_status": "VERIFIED",
        "category": "Mutual Aid - General"
      }
    },
    {
      "type": "Feature",
      "geometry": {
        "type": "Point",
        "coordinates": [
          -87.66210928674235,
          42.000568291940546
        ]
      },
      "properties": {
        "group_id": "po-box-collective",
        "name": "PO Box Collective",
        "location_name": "Neighbourhood Centroid",
        "address": "Rogers Park",
        "verification_status": "VERIFIED",
        "category": "Social Justice"
      }
    },
    {
      "type": "Feature",
      "geometry": {
        "type": "Point",
        "coordinates": [
          -87.61889855701877,
          41.75784997630081
        ]
      },
      "properties": {
        "group_id": "southside-together",
        "name": "Southside Together",
        "location_name": "Neighbourhood Centroid",
        "address": "South Side",
        "verification_status": "VERIFIED",
        "category": "Social Justice"
      }
    },
    {
      "type": "Feature",
      "geometry": {
        "type": "Point",
        "coordinates": [
          -87.74020183465677,
          41.88260655893646
        ]
      },
      "properties": {
        "group_id": "southwest-collective",
        "name": "Southwest Collective",
        "location_name": "Neighbourhood Centroid",
        "address": "Southwest Side",
        "verification_status": "VERIFIED",
        "category": "Community Advocacy"
      }
    },
    {
      "type": "Feature",
      "geometry": {
        "type": "Point",
        "coordinates": [
          -87.61819734374558,
          41.75928564469794
        ]
      },
      "properties": {
        "group_id": "brave-space-alliance",
        "name": "Brave Space Alliance",
        "location_name": "Neighbourhood Centroid",
        "address": "South Side",
        "verification_status": "VERIFIED",
        "category": "Healthcare & Wellness"
      }
    },
    {
      "type": "Feature",
      "geometry": {
        "type": "Point",
        "coordinates": [
          -87.62196681203375,
          41.7579024781919
        ]
      },
      "properties": {
        "group_id": "chicago-united-solidarity-project-cusp",
        "name": "Chicago United Solidarity Project (CUSP)",
        "location_name": "Neighbourhood Centroid",
        "address": "South Side",
        "verification_status": "VERIFIED",
        "category": "Mutual Aid - General"
      }
    },
    {
      "type": "Feature",
      "geometry": {
        "type": "Point",
        "coordinates": [
          -87.66017799987254,
          41.97144740591105
        ]
      },
      "properties": {
        "group_id": "chinese-mutual-aid-association-cmaa",
        "name": "Chinese Mutual Aid Association (CMAA)",
        "location_name": "Neighbourhood Centroid",
        "address": "Uptown/Argyle",
        "verification_status": "VERIFIED",
        "category": "Migrant & Immigrant Support"
      }
    },
    {
      "type": "Feature",
      "geometry": {
        "type": "Point",
        "coordinates": [
          -87.6181860747657,
          41.760932534719075
        ]
      },
      "properties": {
        "group_id": "market-box-chicago",
        "name": "Market Box Chicago",
        "location_name": "Neighbourhood Centroid",
        "address": "South Side",
        "verification_status": "VERIFIED",
        "category": "Food Security"
      }
    },
    {
      "type": "Feature",
      "geometry": {
        "type": "Point",
        "coordinates": [
          -87.65076836562893,
          41.94576203234246
        ]
      },
      "properties": {
        "group_id": "lakeview-lincoln-park-mutual-aid",
        "name": "Lakeview/Lincoln Park Mutual Aid",
        "location_name": "Neighbourhood Centroid",
        "address": "Lakeview",
        "verification_status": "VERIFIED",
        "category": "Mutual Aid - General"
      }
    },
    {
      "type": "Feature",
      "geometry": {
        "type": "Point",
        "coordinates": [
          -87.74237713696759,
          41.88073057909157
        ]
      },
      "properties": {
        "group_id": "northwest-side-solidarity-network",
        "name": "Northwest Side Solidarity Network",
        "location_name": "Neighbourhood Centroid",
        "address": "Northwest Side",
        "verification_status": "VERIFIED",
        "category": "Mutual Aid - General"
      }
    },
    {
      "type": "Feature",
      "geometry": {
        "type": "Point",
        "coordinates": [
          -87.66280185533596,
          41.99917781186127
        ]
      },
      "properties": {
        "group_id": "one-northside",
        "name": "ONE Northside",
        "location_name": "Neighbourhood Centroid",
        "address": "Rogers Park",
        "verification_status": "VERIFIED",
        "category": "Community Advocacy"
      }
    },
    {
      "type": "Feature",
      "geometry": {
        "type": "Point",
        "coordinates": [
          -87.71796189573232,
          41.884271777112765
        ]
      },
      "properties": {
        "group_id": "garfield-park-community-council",
        "name": "Garfield Park Community Council",
        "location_name": "Neighbourhood Centroid",
        "address": "Garfield Park",
        "verification_status": "VERIFIED",
        "category": "Food Security / Community Development"
      }
    },
    {
      "type": "Feature",
      "geometry": {
        "type": "Point",
        "coordinates": [
          -87.73823545277999,
          41.88286375649679
        ]
      },
      "properties": {
        "group_id": "john-walt-foundation",
        "name": "John Walt Foundation",
        "location_name": "Neighbourhood Centroid",
        "address": "West Side",
        "verification_status": "VERIFIED",
        "category": "Food Security"
      }
    },
    {
      "type": "Feature",
      "geometry": {
        "type": "Point",
        "coordinates": [
          -87.64860246554399,
          41.94306324837232
        ]
      },
      "properties": {
        "group_id": "center-on-halsted",
        "name": "Center on Halsted",
        "location_name": "Neighbourhood Centroid",
        "address": "Lakeview",
        "verification_status": "VERIFIED",
        "category": "LGBTQ+ Support"
      }
    },
    {
      "type": "Feature",
      "geometry": {
        "type": "Point",
        "coordinates": [
          -87.73764329165436,
          41.88153201277972
        ]
      },
      "properties": {
        "group_id": "chicago-environmental-justice-network-cejn",
        "name": "Chicago Environmental Justice Network (CEJN)",
        "location_name": "Neighbourhood Centroid",
        "address": "South and West Sides",
        "verification_status": "VERIFIED",
        "category": "Environmental Justice"
      }
    },
    {
      "type": "Feature",
      "geometry": {
        "type": "Point",
        "coordinates": [
          -87.73997282114564,
          41.88429619275345
        ]
      },
      "properties": {
        "group_id": "sarah-s-inn",
        "name": "Sarah's Inn",
        "location_name": "Neighbourhood Centroid",
        "address": "West Side",
        "verification_status": "VERIFIED",
        "category": "Domestic Violence Support"
      }
    },
    {
      "type": "Feature",
      "geometry": {
        "type": "Point",
        "coordinates": [
          -87.76507216592003,
          41.900381500147994
        ]
      },
      "properties": {
        "group_id": "westside-community-development-collaboration",
        "name": "Westside Community Development Collaboration",
        "location_name": "Neighbourhood Centroid",
        "address": "Austin",
        "verification_status": "VERIFIED",
        "category": "Community Development"
      }
    },
    {
      "type": "Feature",
      "geometry": {
        "type": "Point",
        "coordinates": [
          -87.59367664295782,
          41.79542044487218
        ]
      },
      "properties": {
        "group_id": "uchrp-u-of-chicago-harm-reduction-project",
        "name": "UCHRP (U of Chicago Harm Reduction Project)",
        "location_name": "Neighbourhood Centroid",
        "address": "Hyde Park / South Side",
        "verification_status": "VERIFIED",
        "category": "Harm Reduction"
      }
    },
    {
      "type": "Feature",
      "geometry": {
        "type": "Point",
        "coordinates": [
          -87.65945390504413,
          41.972303433503626
        ]
      },
      "properties": {
        "group_id": "american-indian-center-chicago",
        "name": "American Indian Center Chicago",
        "location_name": "Neighbourhood Centroid",
        "address": "Uptown / Citywide",
        "verification_status": "VERIFIED",
        "category": "Indigenous Solidarity"
      }
    },
    {
      "type": "Feature",
      "geometry": {
        "type": "Point",
        "coordinates": [
          -87.59612332187318,
          41.794461621615724
        ]
      },
      "properties": {
        "group_id": "hyde-park-art-center",
        "name": "Hyde Park Art Center",
        "location_name": "Neighbourhood Centroid",
        "address": "Hyde Park",
        "verification_status": "VERIFIED",
        "category": "Arts & Culture"
      }
    },
    {
      "type": "Feature",
      "geometry": {
        "type": "Point",
        "coordinates": [
          -87.62385203046505,
          41.69118532116376
        ]
      },
      "properties": {
        "group_id": "roseland-ceasefire",
        "name": "Roseland Ceasefire",
        "location_name": "Neighbourhood Centroid",
        "address": "Roseland",
        "verification_status": "VERIFIED",
        "category": "Community Advocacy"
      }
    },
    {
      "type": "Feature",
      "geometry": {
        "type": "Point",
        "coordinates": [
          -87.62046729281643,
          41.694118605972385
        ]
      },
      "properties": {
        "group_id": "sheldon-heights-coc-food-pantry",
        "name": "Sheldon Heights CoC Food Pantry",
        "location_name": "Neighbourhood Centroid",
        "address": "Roseland",
        "verification_status": "VERIFIED",
        "category": "Food Security"
      }
    },
    {
      "type": "Feature",
      "geometry": {
        "type": "Point",
        "coordinates": [
          -87.66093103242265,
          41.748979996482255
        ]
      },
      "properties": {
        "group_id": "st-sabina-church-food-pantry",
        "name": "St. Sabina Church Food Pantry",
        "location_name": "Neighbourhood Centroid",
        "address": "Auburn Gresham",
        "verification_status": "VERIFIED",
        "category": "Food Security"
      }
    },
    {
      "type": "Feature",
      "geometry": {
        "type": "Point",
        "coordinates": [
          -87.68707019847578,
          42.046547547912134
        ]
      },
      "properties": {
        "group_id": "evanston-community-cares",
        "name": "Evanston Community Cares",
        "location_name": "Neighbourhood Centroid",
        "address": "Evanston",
        "verification_status": "VERIFIED",
        "category": "Mutual Aid - General"
      }
    },
    {
      "type": "Feature",
      "geometry": {
        "type": "Point",
        "coordinates": [
          -87.68672427482461,
          42.042678203570205
        ]
      },
      "properties": {
        "group_id": "evanston-skokie-mutual-aid-network",
        "name": "Evanston/Skokie Mutual Aid Network",
        "location_name": "Neighbourhood Centroid",
        "address": "Evanston",
        "verification_status": "VERIFIED",
        "category": "Mutual Aid - General"
      }
    },
    {
      "type": "Feature",
      "geometry": {
        "type": "Point",
        "coordinates": [
          -87.62354828007518,
          41.69262787914898
        ]
      },
      "properties": {
        "group_id": "greater-roseland-west-pullman-food-network",
        "name": "Greater Roseland West Pullman Food Network",
        "location_name": "Neighbourhood Centroid",
        "address": "Roseland",
        "verification_status": "VERIFIED",
        "category": "Food Security"
      }
    },
    {
      "type": "Feature",
      "geometry": {
        "type": "Point",
        "coordinates": [
          -87.66270894655788,
          41.75198447152576
        ]
      },
      "properties": {
        "group_id": "target-area-development-corporation",
        "name": "Target Area Development Corporation",
        "location_name": "Neighbourhood Centroid",
        "address": "Auburn Gresham",
        "verification_status": "VERIFIED",
        "category": "Food Security"
      }
    },
    {
      "type": "Feature",
      "geometry": {
        "type": "Point",
        "coordinates": [
          -87.66501647925732,
          41.74932868765423
        ]
      },
      "properties": {
        "group_id": "greater-auburn-gresham-development-corporation-gagdc",
        "name": "Greater Auburn Gresham Development Corporation (GAGDC)",
        "location_name": "Neighbourhood Centroid",
        "address": "Auburn Gresham",
        "verification_status": "VERIFIED",
        "category": "Community Development"
      }
    },
    {
      "type": "Feature",
      "geometry": {
        "type": "Point",
        "coordinates": [
          -87.62152337324534,
          41.69548324905744
        ]
      },
      "properties": {
        "group_id": "youth-peace-center-of-roseland",
        "name": "Youth Peace Center of Roseland",
        "location_name": "Neighbourhood Centroid",
        "address": "Roseland",
        "verification_status": "VERIFIED",
        "category": "Youth & Education"
      }
    },
    {
      "type": "Feature",
      "geometry": {
        "type": "Point",
        "coordinates": [
          -87.62336188097038,
          41.69180482215608
        ]
      },
      "properties": {
        "group_id": "peaceplayers-chicago",
        "name": "PeacePlayers Chicago",
        "location_name": "Neighbourhood Centroid",
        "address": "Roseland",
        "verification_status": "VERIFIED",
        "category": "Youth & Education"
      }
    },
    {
      "type": "Feature",
      "geometry": {
        "type": "Point",
        "coordinates": [
          -87.594799326989,
          41.77283975416017
        ]
      },
      "properties": {
        "group_id": "southside-nature-play",
        "name": "Southside Nature Play",
        "location_name": "Neighbourhood Centroid",
        "address": "Woodlawn",
        "verification_status": "LIKELY_ACTIVE",
        "category": "Environmental & Green Space"
      }
    },
    {
      "type": "Feature",
      "geometry": {
        "type": "Point",
        "coordinates": [
          -87.65932588876538,
          41.9901604409862
        ]
      },
      "properties": {
        "group_id": "edgewater-mutual-aid-group",
        "name": "Edgewater Mutual Aid Group",
        "location_name": "Neighbourhood Centroid",
        "address": "Edgewater",
        "verification_status": "LIKELY_ACTIVE",
        "category": "General Mutual Aid / Food & Essentials"
      }
    },
    {
      "type": "Feature",
      "geometry": {
        "type": "Point",
        "coordinates": [
          -87.70536230108604,
          41.92334296487739
        ]
      },
      "properties": {
        "group_id": "el-rbol",
        "name": "El \u00c1rbol",
        "location_name": "Neighbourhood Centroid",
        "address": "Logan Square",
        "verification_status": "LIKELY_ACTIVE",
        "category": "Migrant Support / Free Store"
      }
    },
    {
      "type": "Feature",
      "geometry": {
        "type": "Point",
        "coordinates": [
          -87.66233688850531,
          41.852000991177015
        ]
      },
      "properties": {
        "group_id": "femme-defensa",
        "name": "Femme Defensa",
        "location_name": "Neighbourhood Centroid",
        "address": "Pilsen / Little Village",
        "verification_status": "VERIFIED",
        "category": "Gender-Based Violence / Food & Housing"
      }
    },
    {
      "type": "Feature",
      "geometry": {
        "type": "Point",
        "coordinates": [
          -87.66368746492905,
          41.99726935920805
        ]
      },
      "properties": {
        "group_id": "food-not-bombs-chicago-rogers-park",
        "name": "Food Not Bombs Chicago \u2013 Rogers Park",
        "location_name": "Neighbourhood Centroid",
        "address": "Rogers Park",
        "verification_status": "VERIFIED",
        "category": "Food Recovery / Distribution"
      }
    },
    {
      "type": "Feature",
      "geometry": {
        "type": "Point",
        "coordinates": [
          -87.64762499777575,
          41.77237098123412
        ]
      },
      "properties": {
        "group_id": "getting-grown-collective-food-farm-familias",
        "name": "Getting Grown Collective \u2013 Food, Farm, Familias",
        "location_name": "Neighbourhood Centroid",
        "address": "Little Village / Englewood / South Chicago",
        "verification_status": "VERIFIED",
        "category": "Food Justice / Urban Agriculture"
      }
    },
    {
      "type": "Feature",
      "geometry": {
        "type": "Point",
        "coordinates": [
          -87.72388038824143,
          41.89987497081477
        ]
      },
      "properties": {
        "group_id": "humboldt-park-solidarity-network",
        "name": "Humboldt Park Solidarity Network",
        "location_name": "Neighbourhood Centroid",
        "address": "Humboldt Park",
        "verification_status": "LIKELY_ACTIVE",
        "category": "General Mutual Aid / Food & Essentials"
      }
    },
    {
      "type": "Feature",
      "geometry": {
        "type": "Point",
        "coordinates": [
          -87.65109949575084,
          41.94184110828484
        ]
      },
      "properties": {
        "group_id": "lakeview-lincoln-park-mutual-aid-network",
        "name": "Lakeview / Lincoln Park Mutual Aid Network",
        "location_name": "Neighbourhood Centroid",
        "address": "Lakeview / Lincoln Park",
        "verification_status": "UNCERTAIN",
        "category": "General Mutual Aid / Food & Essentials"
      }
    },
    {
      "type": "Feature",
      "geometry": {
        "type": "Point",
        "coordinates": [
          -87.73847558083625,
          41.88112218237918
        ]
      },
      "properties": {
        "group_id": "lil-miracles-mutual-aid-360-nation",
        "name": "Lil' Miracles Mutual Aid (360 Nation)",
        "location_name": "Neighbourhood Centroid",
        "address": "West Side",
        "verification_status": "LIKELY_ACTIVE",
        "category": "General Mutual Aid / Youth & Family"
      }
    },
    {
      "type": "Feature",
      "geometry": {
        "type": "Point",
        "coordinates": [
          -87.72242798207705,
          41.89871495417276
        ]
      },
      "properties": {
        "group_id": "lolitas-bodega",
        "name": "Lolitas Bodega",
        "location_name": "Neighbourhood Centroid",
        "address": "Humboldt Park",
        "verification_status": "VERIFIED",
        "category": "Food & Essentials / Community Care"
      }
    },
    {
      "type": "Feature",
      "geometry": {
        "type": "Point",
        "coordinates": [
          -87.59200690303305,
          41.77253529909161
        ]
      },
      "properties": {
        "group_id": "market-box",
        "name": "Market Box",
        "location_name": "Neighbourhood Centroid",
        "address": "Woodlawn / South Side",
        "verification_status": "VERIFIED",
        "category": "Food Justice / Farm Share Distribution"
      }
    },
    {
      "type": "Feature",
      "geometry": {
        "type": "Point",
        "coordinates": [
          -87.662400262152,
          41.85670191729341
        ]
      },
      "properties": {
        "group_id": "pilsen-social-health-initiative",
        "name": "Pilsen Social Health Initiative",
        "location_name": "Neighbourhood Centroid",
        "address": "Pilsen",
        "verification_status": "VERIFIED",
        "category": "General Mutual Aid / Food & Health"
      }
    },
    {
      "type": "Feature",
      "geometry": {
        "type": "Point",
        "coordinates": [
          -87.72779860242409,
          41.970357813653536
        ]
      },
      "properties": {
        "group_id": "pueblo-unido-albany-park",
        "name": "Pueblo Unido Albany Park",
        "location_name": "Neighbourhood Centroid",
        "address": "Albany Park",
        "verification_status": "LIKELY_ACTIVE",
        "category": "Immigrant Support / General Mutual Aid"
      }
    },
    {
      "type": "Feature",
      "geometry": {
        "type": "Point",
        "coordinates": [
          -87.64572387533048,
          41.77392408485906
        ]
      },
      "properties": {
        "group_id": "resident-association-of-greater-englewood-r-a-g-e",
        "name": "Resident Association of Greater Englewood (R.A.G.E.)",
        "location_name": "Neighbourhood Centroid",
        "address": "Englewood",
        "verification_status": "VERIFIED",
        "category": "Community Organizing / Mutual Aid"
      }
    },
    {
      "type": "Feature",
      "geometry": {
        "type": "Point",
        "coordinates": [
          -87.66470337468182,
          42.00023908858069
        ]
      },
      "properties": {
        "group_id": "rogers-park-free-store",
        "name": "Rogers Park Free Store",
        "location_name": "Neighbourhood Centroid",
        "address": "Rogers Park",
        "verification_status": "VERIFIED",
        "category": "Free Store / Basic Needs"
      }
    },
    {
      "type": "Feature",
      "geometry": {
        "type": "Point",
        "coordinates": [
          -87.61964322760622,
          41.75761545870072
        ]
      },
      "properties": {
        "group_id": "adler-planetarium",
        "name": "Adler Planetarium",
        "location_name": "Neighbourhood Centroid",
        "address": "Near South Side (Museum Campus)",
        "verification_status": "VERIFIED",
        "category": "Museum"
      }
    },
    {
      "type": "Feature",
      "geometry": {
        "type": "Point",
        "coordinates": [
          -87.61853426506846,
          41.7612194182482
        ]
      },
      "properties": {
        "group_id": "field-museum",
        "name": "Field Museum",
        "location_name": "Neighbourhood Centroid",
        "address": "Near South Side (Museum Campus)",
        "verification_status": "VERIFIED",
        "category": "Museum"
      }
    },
    {
      "type": "Feature",
      "geometry": {
        "type": "Point",
        "coordinates": [
          -87.66126250742393,
          41.97212465299172
        ]
      },
      "properties": {
        "group_id": "museum-of-contemporary-art-mca-chicago",
        "name": "Museum of Contemporary Art (MCA) Chicago",
        "location_name": "Neighbourhood Centroid",
        "address": "Near North Side / Streeterville",
        "verification_status": "VERIFIED",
        "category": "Museum"
      }
    },
    {
      "type": "Feature",
      "geometry": {
        "type": "Point",
        "coordinates": [
          -87.61763977956802,
          41.757890680518784
        ]
      },
      "properties": {
        "group_id": "shedd-aquarium",
        "name": "Shedd Aquarium",
        "location_name": "Neighbourhood Centroid",
        "address": "Near South Side (Museum Campus)",
        "verification_status": "VERIFIED",
        "category": "Museum / Aquarium"
      }
    },
    {
      "type": "Feature",
      "geometry": {
        "type": "Point",
        "coordinates": [
          -87.64989729741929,
          41.94158768669147
        ]
      },
      "properties": {
        "group_id": "stage-773",
        "name": "Stage 773",
        "location_name": "Neighbourhood Centroid",
        "address": "Lakeview",
        "verification_status": "INACTIVE",
        "category": "Theater"
      }
    },
    {
      "type": "Feature",
      "geometry": {
        "type": "Point",
        "coordinates": [
          -87.66344168650177,
          42.000078341737726
        ]
      },
      "properties": {
        "group_id": "american-indian-association-of-illinois-aiai",
        "name": "American Indian Association of Illinois (AIAI)",
        "location_name": "Neighbourhood Centroid",
        "address": "Rogers Park",
        "verification_status": "VERIFIED",
        "category": "Education & Youth Services"
      }
    },
    {
      "type": "Feature",
      "geometry": {
        "type": "Point",
        "coordinates": [
          -87.72462432632413,
          41.96603540731027
        ]
      },
      "properties": {
        "group_id": "american-indian-center-of-chicago-aic",
        "name": "American Indian Center of Chicago (AIC)",
        "location_name": "Neighbourhood Centroid",
        "address": "Albany Park",
        "verification_status": "VERIFIED",
        "category": "Cultural Center & Community Hub"
      }
    },
    {
      "type": "Feature",
      "geometry": {
        "type": "Point",
        "coordinates": [
          -87.72668681079095,
          41.967943766452095
        ]
      },
      "properties": {
        "group_id": "american-indian-health-service-of-chicago-aihsc",
        "name": "American Indian Health Service of Chicago (AIHSC)",
        "location_name": "Neighbourhood Centroid",
        "address": "Albany Park",
        "verification_status": "VERIFIED",
        "category": "Indigenous Healthcare & Behavioral Health"
      }
    },
    {
      "type": "Feature",
      "geometry": {
        "type": "Point",
        "coordinates": [
          -87.72888351438135,
          41.969744093737496
        ]
      },
      "properties": {
        "group_id": "chi-nations-youth-council-cnyc",
        "name": "Chi-Nations Youth Council (CNYC)",
        "location_name": "Neighbourhood Centroid",
        "address": "Albany Park / Citywide",
        "verification_status": "VERIFIED",
        "category": "Youth Activism & Cultural Preservation"
      }
    },
    {
      "type": "Feature",
      "geometry": {
        "type": "Point",
        "coordinates": [
          -87.72768028269782,
          41.97076636631806
        ]
      },
      "properties": {
        "group_id": "first-nations-garden",
        "name": "First Nations Garden",
        "location_name": "Neighbourhood Centroid",
        "address": "Albany Park",
        "verification_status": "VERIFIED",
        "category": "Land Stewardship & Environmental Justice"
      }
    },
    {
      "type": "Feature",
      "geometry": {
        "type": "Point",
        "coordinates": [
          -87.68527892101059,
          42.045626340294014
        ]
      },
      "properties": {
        "group_id": "gichigamiin-indigenous-nations-museum",
        "name": "Gichigamiin Indigenous Nations Museum",
        "location_name": "Neighbourhood Centroid",
        "address": "Evanston (Chicago Metro)",
        "verification_status": "VERIFIED",
        "category": "Museum & Cultural Education"
      }
    },
    {
      "type": "Feature",
      "geometry": {
        "type": "Point",
        "coordinates": [
          -87.65873089882302,
          41.97208412138722
        ]
      },
      "properties": {
        "group_id": "indigenous-chicago",
        "name": "Indigenous Chicago",
        "location_name": "Neighbourhood Centroid",
        "address": "Near North Side (c/o Newberry Library)",
        "verification_status": "LIKELY_ACTIVE",
        "category": "Public Education & Community Mapping"
      }
    },
    {
      "type": "Feature",
      "geometry": {
        "type": "Point",
        "coordinates": [
          -87.66222260022077,
          41.97055211654276
        ]
      },
      "properties": {
        "group_id": "newberry-library-d-arcy-mcnickle-center",
        "name": "Newberry Library \u2014 D'Arcy McNickle Center",
        "location_name": "Neighbourhood Centroid",
        "address": "Near North Side (Gold Coast)",
        "verification_status": "VERIFIED",
        "category": "Research & Cultural Archives"
      }
    },
    {
      "type": "Feature",
      "geometry": {
        "type": "Point",
        "coordinates": [
          -87.64897408969408,
          41.94424600932542
        ]
      },
      "properties": {
        "group_id": "saint-kateri-center-of-chicago",
        "name": "Saint Kateri Center of Chicago",
        "location_name": "Neighbourhood Centroid",
        "address": "Lakeview / North Center",
        "verification_status": "LIKELY_ACTIVE",
        "category": "Spiritual Community & Cultural Preservation"
      }
    },
    {
      "type": "Feature",
      "geometry": {
        "type": "Point",
        "coordinates": [
          -87.73922016091277,
          41.883680318662066
        ]
      },
      "properties": {
        "group_id": "big-brothers-big-sisters-of-metropolitan-chicago",
        "name": "Big Brothers Big Sisters of Metropolitan Chicago",
        "location_name": "Neighbourhood Centroid",
        "address": "Near West Side (citywide programs)",
        "verification_status": "VERIFIED",
        "category": "Youth Mentoring"
      }
    },
    {
      "type": "Feature",
      "geometry": {
        "type": "Point",
        "coordinates": [
          -87.65018318677741,
          41.82912739832937
        ]
      },
      "properties": {
        "group_id": "chicago-arts-partnerships-in-education-cape",
        "name": "Chicago Arts Partnerships in Education (CAPE)",
        "location_name": "Neighbourhood Centroid",
        "address": "Bridgeport / Near South Side",
        "verification_status": "VERIFIED",
        "category": "Arts-Integrated Education"
      }
    },
    {
      "type": "Feature",
      "geometry": {
        "type": "Point",
        "coordinates": [
          -87.646327874607,
          41.77280807276537
        ]
      },
      "properties": {
        "group_id": "chicago-hopes-for-kids",
        "name": "Chicago HOPES for Kids",
        "location_name": "Neighbourhood Centroid",
        "address": "Englewood / South Side",
        "verification_status": "VERIFIED",
        "category": "Youth Education & Tutoring / Homeless Youth"
      }
    },
    {
      "type": "Feature",
      "geometry": {
        "type": "Point",
        "coordinates": [
          -87.6593690180966,
          41.96916489579832
        ]
      },
      "properties": {
        "group_id": "chicago-lights-tutoring",
        "name": "Chicago Lights Tutoring",
        "location_name": "Neighbourhood Centroid",
        "address": "Gold Coast / Near North Side",
        "verification_status": "VERIFIED",
        "category": "Youth Tutoring & Mentorship"
      }
    },
    {
      "type": "Feature",
      "geometry": {
        "type": "Point",
        "coordinates": [
          -87.59043285622636,
          41.77641800082165
        ]
      },
      "properties": {
        "group_id": "project-exploration",
        "name": "Project Exploration",
        "location_name": "Neighbourhood Centroid",
        "address": "Woodlawn / South Side",
        "verification_status": "VERIFIED",
        "category": "STEM Science Education / Youth Development"
      }
    },
    {
      "type": "Feature",
      "geometry": {
        "type": "Point",
        "coordinates": [
          -87.65028034294433,
          41.82917278690263
        ]
      },
      "properties": {
        "group_id": "project-vision",
        "name": "Project: VISION",
        "location_name": "Neighbourhood Centroid",
        "address": "Chinatown / Bridgeport",
        "verification_status": "VERIFIED",
        "category": "Youth Education & Leadership / API Community"
      }
    },
    {
      "type": "Feature",
      "geometry": {
        "type": "Point",
        "coordinates": [
          -87.65033530481472,
          41.9454805856108
        ]
      },
      "properties": {
        "group_id": "sitstayread",
        "name": "SitStayRead",
        "location_name": "Neighbourhood Centroid",
        "address": "Lakeview (HQ; programs citywide)",
        "verification_status": "VERIFIED",
        "category": "Canine-Assisted Youth Literacy"
      }
    },
    {
      "type": "Feature",
      "geometry": {
        "type": "Point",
        "coordinates": [
          -87.71763899484534,
          41.883193537812765
        ]
      },
      "properties": {
        "group_id": "garfield-park-conservatory-alliance",
        "name": "Garfield Park Conservatory Alliance",
        "location_name": "Neighbourhood Centroid",
        "address": "East Garfield Park",
        "verification_status": "VERIFIED",
        "category": "Botanical Garden/Education"
      }
    },
    {
      "type": "Feature",
      "geometry": {
        "type": "Point",
        "coordinates": [
          -87.59316052172431,
          41.77577578121641
        ]
      },
      "properties": {
        "group_id": "phoenix-sustainability-initiative",
        "name": "Phoenix Sustainability Initiative",
        "location_name": "Neighbourhood Centroid",
        "address": "Hyde Park / Woodlawn",
        "verification_status": "VERIFIED",
        "category": "Community Garden & Environmental Education"
      }
    },
    {
      "type": "Feature",
      "geometry": {
        "type": "Point",
        "coordinates": [
          -87.66180870847444,
          41.988552048846145
        ]
      },
      "properties": {
        "group_id": "peterson-garden-project",
        "name": "Peterson Garden Project",
        "location_name": "Neighbourhood Centroid",
        "address": "Edgewater / Citywide",
        "verification_status": "STALE",
        "category": "Community/Victory Gardens"
      }
    },
    {
      "type": "Feature",
      "geometry": {
        "type": "Point",
        "coordinates": [
          -87.64732355738028,
          41.77248714310993
        ]
      },
      "properties": {
        "group_id": "growing-home",
        "name": "Growing Home",
        "location_name": "Neighbourhood Centroid",
        "address": "Englewood",
        "verification_status": "VERIFIED",
        "category": "Urban Agriculture/Job Training"
      }
    },
    {
      "type": "Feature",
      "geometry": {
        "type": "Point",
        "coordinates": [
          -87.66390379419519,
          41.998283802906286
        ]
      },
      "properties": {
        "group_id": "cje-seniorlife",
        "name": "CJE SeniorLife",
        "location_name": "Neighbourhood Centroid",
        "address": "West Rogers Park",
        "verification_status": "VERIFIED",
        "category": "Senior Meal Delivery"
      }
    },
    {
      "type": "Feature",
      "geometry": {
        "type": "Point",
        "coordinates": [
          -87.66173748389173,
          41.99765653290579
        ]
      },
      "properties": {
        "group_id": "care-for-real",
        "name": "Care for Real",
        "location_name": "Neighbourhood Centroid",
        "address": "Rogers Park",
        "verification_status": "VERIFIED",
        "category": "Food Pantry"
      }
    },
    {
      "type": "Feature",
      "geometry": {
        "type": "Point",
        "coordinates": [
          -87.60846079033523,
          41.7502766950313
        ]
      },
      "properties": {
        "group_id": "chatham-avalon-ministries-inc",
        "name": "Chatham-Avalon Ministries Inc.",
        "location_name": "Neighbourhood Centroid",
        "address": "Chatham",
        "verification_status": "LIKELY_ACTIVE",
        "category": "Food Pantry"
      }
    },
    {
      "type": "Feature",
      "geometry": {
        "type": "Point",
        "coordinates": [
          -87.66317608049692,
          41.999173468847516
        ]
      },
      "properties": {
        "group_id": "ezra-multi-service-center",
        "name": "EZRA Multi-Service Center",
        "location_name": "Neighbourhood Centroid",
        "address": "West Rogers Park",
        "verification_status": "VERIFIED",
        "category": "Food Pantry / Social Services"
      }
    },
    {
      "type": "Feature",
      "geometry": {
        "type": "Point",
        "coordinates": [
          -87.72576893507545,
          41.96900583280345
        ]
      },
      "properties": {
        "group_id": "friendship-center-chicago",
        "name": "Friendship Center Chicago",
        "location_name": "Neighbourhood Centroid",
        "address": "Albany Park / Northwest Side",
        "verification_status": "VERIFIED",
        "category": "Food Pantry / Soup Kitchen"
      }
    },
    {
      "type": "Feature",
      "geometry": {
        "type": "Point",
        "coordinates": [
          -87.64902439315276,
          41.94516535824158
        ]
      },
      "properties": {
        "group_id": "lakeview-pantry-nourishing-hope",
        "name": "Lakeview Pantry / Nourishing Hope",
        "location_name": "Neighbourhood Centroid",
        "address": "Lakeview / Uptown",
        "verification_status": "VERIFIED",
        "category": "Food Pantry / Social Services"
      }
    },
    {
      "type": "Feature",
      "geometry": {
        "type": "Point",
        "coordinates": [
          -87.74099229082101,
          41.88431710322089
        ]
      },
      "properties": {
        "group_id": "marillac-house-food-pantry",
        "name": "Marillac House Food Pantry",
        "location_name": "Neighbourhood Centroid",
        "address": "Near West Side",
        "verification_status": "VERIFIED",
        "category": "Food Pantry"
      }
    },
    {
      "type": "Feature",
      "geometry": {
        "type": "Point",
        "coordinates": [
          -87.66389961323706,
          41.85516516080389
        ]
      },
      "properties": {
        "group_id": "pilsen-food-pantry",
        "name": "Pilsen Food Pantry",
        "location_name": "Neighbourhood Centroid",
        "address": "Pilsen",
        "verification_status": "VERIFIED",
        "category": "Food Pantry"
      }
    },
    {
      "type": "Feature",
      "geometry": {
        "type": "Point",
        "coordinates": [
          -87.66024003582648,
          41.855415227430434
        ]
      },
      "properties": {
        "group_id": "providence-soup-kitchen-daughters-of-st-mary-of-providence",
        "name": "Providence Soup Kitchen (Daughters of St. Mary of Providence)",
        "location_name": "Neighbourhood Centroid",
        "address": "Pilsen",
        "verification_status": "LIKELY_ACTIVE",
        "category": "Soup Kitchen"
      }
    },
    {
      "type": "Feature",
      "geometry": {
        "type": "Point",
        "coordinates": [
          -87.65929883542306,
          41.96850104202165
        ]
      },
      "properties": {
        "group_id": "ronald-mcdonald-house-charities-of-chicagoland-nw-indiana",
        "name": "Ronald McDonald House Charities of Chicagoland & NW Indiana",
        "location_name": "Neighbourhood Centroid",
        "address": "Streeterville / Near North Side",
        "verification_status": "VERIFIED",
        "category": "Meal Preparation"
      }
    },
    {
      "type": "Feature",
      "geometry": {
        "type": "Point",
        "coordinates": [
          -87.62067626275736,
          41.75889049417408
        ]
      },
      "properties": {
        "group_id": "st-cyprian-food-pantry",
        "name": "St. Cyprian Food Pantry",
        "location_name": "Neighbourhood Centroid",
        "address": "South Side",
        "verification_status": "VERIFIED",
        "category": "Food Pantry"
      }
    },
    {
      "type": "Feature",
      "geometry": {
        "type": "Point",
        "coordinates": [
          -87.76393703334641,
          41.89917441269712
        ]
      },
      "properties": {
        "group_id": "the-boulevard-the-road-to-health-and-home",
        "name": "The Boulevard: The Road to Health and Home",
        "location_name": "Neighbourhood Centroid",
        "address": "Austin / West Side",
        "verification_status": "VERIFIED",
        "category": "Food / Social Services"
      }
    },
    {
      "type": "Feature",
      "geometry": {
        "type": "Point",
        "coordinates": [
          -87.62226140266368,
          41.761283374343975
        ]
      },
      "properties": {
        "group_id": "affinity-community-services",
        "name": "Affinity Community Services",
        "location_name": "Neighbourhood Centroid",
        "address": "Douglas/Near South Side",
        "verification_status": "VERIFIED",
        "category": "LGBTQ+ Social Justice"
      }
    },
    {
      "type": "Feature",
      "geometry": {
        "type": "Point",
        "coordinates": [
          -87.65083195207094,
          41.94422491809751
        ]
      },
      "properties": {
        "group_id": "broadway-youth-center-howard-brown-health",
        "name": "Broadway Youth Center (Howard Brown Health)",
        "location_name": "Neighbourhood Centroid",
        "address": "Lakeview",
        "verification_status": "VERIFIED",
        "category": "LGBTQ+ Youth Services"
      }
    },
    {
      "type": "Feature",
      "geometry": {
        "type": "Point",
        "coordinates": [
          -87.61911267237848,
          41.762131035633104
        ]
      },
      "properties": {
        "group_id": "chicago-house",
        "name": "Chicago House",
        "location_name": "Neighbourhood Centroid",
        "address": "Near South Side",
        "verification_status": "VERIFIED",
        "category": "HIV/AIDS Services / LGBTQ+ Housing"
      }
    },
    {
      "type": "Feature",
      "geometry": {
        "type": "Point",
        "coordinates": [
          -87.739782956354,
          41.88200994486718
        ]
      },
      "properties": {
        "group_id": "covenant-house-illinois",
        "name": "Covenant House Illinois",
        "location_name": "Neighbourhood Centroid",
        "address": "West Side",
        "verification_status": "VERIFIED",
        "category": "LGBTQ+ Youth Services / Homeless Services"
      }
    },
    {
      "type": "Feature",
      "geometry": {
        "type": "Point",
        "coordinates": [
          -87.66091815678995,
          41.996278918982135
        ]
      },
      "properties": {
        "group_id": "circles-ciphers",
        "name": "Circles & Ciphers",
        "location_name": "Neighbourhood Centroid",
        "address": "Rogers Park",
        "verification_status": "VERIFIED",
        "category": "Restorative Justice / Youth Arts"
      }
    },
    {
      "type": "Feature",
      "geometry": {
        "type": "Point",
        "coordinates": [
          -87.66192732583345,
          41.971589893948995
        ]
      },
      "properties": {
        "group_id": "john-howard-association-of-illinois-jha",
        "name": "John Howard Association of Illinois (JHA)",
        "location_name": "Neighbourhood Centroid",
        "address": "Near North Side / Citywide",
        "verification_status": "VERIFIED",
        "category": "Prison Monitoring & Reform"
      }
    },
    {
      "type": "Feature",
      "geometry": {
        "type": "Point",
        "coordinates": [
          -87.62230518599114,
          41.75811776424909
        ]
      },
      "properties": {
        "group_id": "moms-united-against-violence-and-incarceration-muavi",
        "name": "Moms United Against Violence and Incarceration (MUAVI)",
        "location_name": "Neighbourhood Centroid",
        "address": "South Side / Citywide",
        "verification_status": "VERIFIED",
        "category": "Caregiver / Family Support"
      }
    },
    {
      "type": "Feature",
      "geometry": {
        "type": "Point",
        "coordinates": [
          -87.64608489183925,
          41.77477392257319
        ]
      },
      "properties": {
        "group_id": "precious-blood-ministry-of-reconciliation-pbmr",
        "name": "Precious Blood Ministry of Reconciliation (PBMR)",
        "location_name": "Neighbourhood Centroid",
        "address": "Back of the Yards / Englewood",
        "verification_status": "VERIFIED",
        "category": "Restorative Justice"
      }
    },
    {
      "type": "Feature",
      "geometry": {
        "type": "Point",
        "coordinates": [
          -87.65809834766193,
          41.97141297112581
        ]
      },
      "properties": {
        "group_id": "prison-neighborhood-arts-education-project-pnap",
        "name": "Prison + Neighborhood Arts/Education Project (PNAP)",
        "location_name": "Neighbourhood Centroid",
        "address": "Uptown",
        "verification_status": "VERIFIED",
        "category": "Books & Arts in Prison"
      }
    },
    {
      "type": "Feature",
      "geometry": {
        "type": "Point",
        "coordinates": [
          -87.74093196575221,
          41.88053211088066
        ]
      },
      "properties": {
        "group_id": "safer-foundation",
        "name": "Safer Foundation",
        "location_name": "Neighbourhood Centroid",
        "address": "Near West Side / Southwest Side",
        "verification_status": "VERIFIED",
        "category": "Reentry Support"
      }
    },
    {
      "type": "Feature",
      "geometry": {
        "type": "Point",
        "coordinates": [
          -87.6564596110777,
          41.97581084964865
        ]
      },
      "properties": {
        "group_id": "transformative-justice-law-project-of-illinois-tjlp",
        "name": "Transformative Justice Law Project of Illinois (TJLP)",
        "location_name": "Neighbourhood Centroid",
        "address": "Uptown",
        "verification_status": "VERIFIED",
        "category": "Legal Advocacy / Abolitionist"
      }
    },
    {
      "type": "Feature",
      "geometry": {
        "type": "Point",
        "coordinates": [
          -87.7199556482171,
          41.88023567860072
        ]
      },
      "properties": {
        "group_id": "transforming-reentry-services-mwipm",
        "name": "Transforming Reentry Services / MWIPM",
        "location_name": "Neighbourhood Centroid",
        "address": "Douglas / East Garfield Park",
        "verification_status": "VERIFIED",
        "category": "Reentry Support"
      }
    },
    {
      "type": "Feature",
      "geometry": {
        "type": "Point",
        "coordinates": [
          -87.72482876837812,
          41.96628193059877
        ]
      },
      "properties": {
        "group_id": "catholic-charities-of-chicago-immigrant-services",
        "name": "Catholic Charities of Chicago \u2014 Immigrant Services",
        "location_name": "Neighbourhood Centroid",
        "address": "Albany Park",
        "verification_status": "VERIFIED",
        "category": "Refugee Resettlement / Immigrant Services"
      }
    },
    {
      "type": "Feature",
      "geometry": {
        "type": "Point",
        "coordinates": [
          -87.65742305302365,
          41.99048873395332
        ]
      },
      "properties": {
        "group_id": "centro-romero",
        "name": "Centro Romero",
        "location_name": "Neighbourhood Centroid",
        "address": "Edgewater",
        "verification_status": "VERIFIED",
        "category": "Immigrant Community Services / Education"
      }
    },
    {
      "type": "Feature",
      "geometry": {
        "type": "Point",
        "coordinates": [
          -87.65647983235534,
          41.97299339087541
        ]
      },
      "properties": {
        "group_id": "ethiopian-community-association-of-chicago-ecac",
        "name": "Ethiopian Community Association of Chicago (ECAC)",
        "location_name": "Neighbourhood Centroid",
        "address": "Uptown",
        "verification_status": "VERIFIED",
        "category": "East African Immigrant Services"
      }
    },
    {
      "type": "Feature",
      "geometry": {
        "type": "Point",
        "coordinates": [
          -87.66243314403069,
          41.969172335542815
        ]
      },
      "properties": {
        "group_id": "mira-chicago-middle-eastern-immigrant-refugee-alliance",
        "name": "MIRA Chicago (Middle Eastern Immigrant & Refugee Alliance)",
        "location_name": "Neighbourhood Centroid",
        "address": "North Side / Lincolnwood",
        "verification_status": "VERIFIED",
        "category": "Middle Eastern Refugee & Immigrant Services"
      }
    },
    {
      "type": "Feature",
      "geometry": {
        "type": "Point",
        "coordinates": [
          -87.66169606464364,
          41.99934842291645
        ]
      },
      "properties": {
        "group_id": "refugeeone",
        "name": "RefugeeOne",
        "location_name": "Neighbourhood Centroid",
        "address": "West Rogers Park",
        "verification_status": "VERIFIED",
        "category": "Refugee Resettlement / Integration"
      }
    },
    {
      "type": "Feature",
      "geometry": {
        "type": "Point",
        "coordinates": [
          -87.66227940872258,
          41.85221067270028
        ]
      },
      "properties": {
        "group_id": "the-resurrection-project-trp-immigrant-justice",
        "name": "The Resurrection Project / TRP Immigrant Justice",
        "location_name": "Neighbourhood Centroid",
        "address": "Pilsen",
        "verification_status": "VERIFIED",
        "category": "Immigrant Legal Services / Community Organizing"
      }
    },
    {
      "type": "Feature",
      "geometry": {
        "type": "Point",
        "coordinates": [
          -87.7289129184575,
          41.969414791324795
        ]
      },
      "properties": {
        "group_id": "world-relief-chicagoland",
        "name": "World Relief Chicagoland",
        "location_name": "Neighbourhood Centroid",
        "address": "Albany Park",
        "verification_status": "VERIFIED",
        "category": "Refugee Resettlement / ESL / Employment"
      }
    },
    {
      "type": "Feature",
      "geometry": {
        "type": "Point",
        "coordinates": [
          -87.61854865129045,
          41.76085638917247
        ]
      },
      "properties": {
        "group_id": "young-center-for-immigrant-children-s-rights",
        "name": "Young Center for Immigrant Children's Rights",
        "location_name": "Neighbourhood Centroid",
        "address": "Near South Side",
        "verification_status": "VERIFIED",
        "category": "Unaccompanied Immigrant Children / Child Advocacy"
      }
    },
    {
      "type": "Feature",
      "geometry": {
        "type": "Point",
        "coordinates": [
          -87.64410658245548,
          41.77371562827586
        ]
      },
      "properties": {
        "group_id": "growing-home-inc",
        "name": "Growing Home Inc.",
        "location_name": "Neighbourhood Centroid",
        "address": "Englewood",
        "verification_status": "VERIFIED",
        "category": "Urban Agriculture / Workforce Development"
      }
    },
    {
      "type": "Feature",
      "geometry": {
        "type": "Point",
        "coordinates": [
          -87.72111908955598,
          41.881698737340365
        ]
      },
      "properties": {
        "group_id": "deborah-s-place",
        "name": "Deborah's Place",
        "location_name": "Neighbourhood Centroid",
        "address": "East Garfield Park / Citywide",
        "verification_status": "LIKELY_ACTIVE",
        "category": "Supportive Housing (Women)"
      }
    },
    {
      "type": "Feature",
      "geometry": {
        "type": "Point",
        "coordinates": [
          -87.66041584601177,
          41.97122201473387
        ]
      },
      "properties": {
        "group_id": "northside-housing-support-services-nshss",
        "name": "Northside Housing & Support Services (NSHSS)",
        "location_name": "Neighbourhood Centroid",
        "address": "Rogers Park / Uptown",
        "verification_status": "VERIFIED",
        "category": "Homeless Services / Emergency Shelter"
      }
    },
    {
      "type": "Feature",
      "geometry": {
        "type": "Point",
        "coordinates": [
          -87.66019781425697,
          41.85331855513652
        ]
      },
      "properties": {
        "group_id": "pilsen-alliance",
        "name": "Pilsen Alliance",
        "location_name": "Neighbourhood Centroid",
        "address": "Pilsen / Lower West Side",
        "verification_status": "VERIFIED",
        "category": "Community Organizing / Anti-Displacement"
      }
    },
    {
      "type": "Feature",
      "geometry": {
        "type": "Point",
        "coordinates": [
          -87.65834922362264,
          41.97346470447364
        ]
      },
      "properties": {
        "group_id": "sarah-s-circle",
        "name": "Sarah's Circle",
        "location_name": "Neighbourhood Centroid",
        "address": "Uptown",
        "verification_status": "VERIFIED",
        "category": "Homeless Services (Women)"
      }
    },
    {
      "type": "Feature",
      "geometry": {
        "type": "Point",
        "coordinates": [
          -87.59609044996344,
          41.79359517094231
        ]
      },
      "properties": {
        "group_id": "mandel-legal-aid-clinic-uchicago-law",
        "name": "Mandel Legal Aid Clinic (UChicago Law)",
        "location_name": "Neighbourhood Centroid",
        "address": "Hyde Park",
        "verification_status": "VERIFIED",
        "category": "Law School Legal Clinic"
      }
    },
    {
      "type": "Feature",
      "geometry": {
        "type": "Point",
        "coordinates": [
          -87.65895785172,
          41.974395190491194
        ]
      },
      "properties": {
        "group_id": "uptown-people-s-law-center",
        "name": "Uptown People's Law Center",
        "location_name": "Neighbourhood Centroid",
        "address": "Uptown",
        "verification_status": "VERIFIED",
        "category": "Housing & Prisoner Rights Legal Aid"
      }
    },
    {
      "type": "Feature",
      "geometry": {
        "type": "Point",
        "coordinates": [
          -87.76340347598575,
          41.89724403029993
        ]
      },
      "properties": {
        "group_id": "austin-coming-together-act",
        "name": "Austin Coming Together (ACT)",
        "location_name": "Neighbourhood Centroid",
        "address": "Austin / West Side",
        "verification_status": "VERIFIED",
        "category": "Collective Impact / Neighborhood Advocacy"
      }
    },
    {
      "type": "Feature",
      "geometry": {
        "type": "Point",
        "coordinates": [
          -87.61819645777699,
          41.82442310801914
        ]
      },
      "properties": {
        "group_id": "bronzeville-community-development-partnership-bcdp",
        "name": "Bronzeville Community Development Partnership (BCDP)",
        "location_name": "Neighbourhood Centroid",
        "address": "Bronzeville",
        "verification_status": "VERIFIED",
        "category": "Community / Economic Development"
      }
    },
    {
      "type": "Feature",
      "geometry": {
        "type": "Point",
        "coordinates": [
          -87.76435027631813,
          41.89812755696884
        ]
      },
      "properties": {
        "group_id": "build-chicago-broader-urban-involvement-leadership-development",
        "name": "BUILD Chicago (Broader Urban Involvement & Leadership Development)",
        "location_name": "Neighbourhood Centroid",
        "address": "Austin / West Side",
        "verification_status": "VERIFIED",
        "category": "Youth Development / Community Advocacy"
      }
    },
    {
      "type": "Feature",
      "geometry": {
        "type": "Point",
        "coordinates": [
          -87.62250770566526,
          41.693658986525385
        ]
      },
      "properties": {
        "group_id": "developing-communities-project-dcp",
        "name": "Developing Communities Project (DCP)",
        "location_name": "Neighbourhood Centroid",
        "address": "Southeast Chicago (Roseland / Pullman)",
        "verification_status": "UNCERTAIN",
        "category": "Faith-Based / Community Organizing"
      }
    },
    {
      "type": "Feature",
      "geometry": {
        "type": "Point",
        "coordinates": [
          -87.62235242737881,
          41.75829286972752
        ]
      },
      "properties": {
        "group_id": "far-south-community-development-corporation-far-south-cdc",
        "name": "Far South Community Development Corporation (Far South CDC)",
        "location_name": "Neighbourhood Centroid",
        "address": "Far South Side (Roseland",
        "verification_status": "VERIFIED",
        "category": "Community / Economic Development"
      }
    },
    {
      "type": "Feature",
      "geometry": {
        "type": "Point",
        "coordinates": [
          -87.64473397204539,
          41.774690775810534
        ]
      },
      "properties": {
        "group_id": "good-kids-mad-city-gkmc-englewood",
        "name": "Good Kids Mad City (GKMC) \u2013 Englewood",
        "location_name": "Neighbourhood Centroid",
        "address": "Englewood / West Englewood",
        "verification_status": "VERIFIED",
        "category": "Youth Advocacy / Peace Building"
      }
    },
    {
      "type": "Feature",
      "geometry": {
        "type": "Point",
        "coordinates": [
          -87.60510114631242,
          41.751527376151074
        ]
      },
      "properties": {
        "group_id": "greater-chatham-initiative-gci",
        "name": "Greater Chatham Initiative (GCI)",
        "location_name": "Neighbourhood Centroid",
        "address": "Chatham / Greater Grand Crossing / Avalon Park / Auburn Gresham",
        "verification_status": "VERIFIED",
        "category": "Community / Economic Development"
      }
    },
    {
      "type": "Feature",
      "geometry": {
        "type": "Point",
        "coordinates": [
          -87.70928395728127,
          41.92161840364496
        ]
      },
      "properties": {
        "group_id": "logan-square-neighborhood-association-palenque-lsna",
        "name": "Logan Square Neighborhood Association / Palenque LSNA",
        "location_name": "Neighbourhood Centroid",
        "address": "Logan Square / Avondale / Hermosa",
        "verification_status": "VERIFIED",
        "category": "Community Organizing / Education & Housing Advocacy"
      }
    },
    {
      "type": "Feature",
      "geometry": {
        "type": "Point",
        "coordinates": [
          -87.74028661689599,
          41.88129358472818
        ]
      },
      "properties": {
        "group_id": "north-lawndale-community-coordinating-council-nlccc",
        "name": "North Lawndale Community Coordinating Council (NLCCC)",
        "location_name": "Neighbourhood Centroid",
        "address": "North Lawndale / West Side",
        "verification_status": "VERIFIED",
        "category": "Community Planning / Neighborhood Advocacy"
      }
    },
    {
      "type": "Feature",
      "geometry": {
        "type": "Point",
        "coordinates": [
          -87.72385765610103,
          41.954875060504534
        ]
      },
      "properties": {
        "group_id": "northwest-side-housing-center-nwshc",
        "name": "Northwest Side Housing Center (NWSHC)",
        "location_name": "Neighbourhood Centroid",
        "address": "Northwest Side (Belmont Cragin / Portage Park / Irving Park)",
        "verification_status": "VERIFIED",
        "category": "Housing Advocacy / Community Organizing"
      }
    },
    {
      "type": "Feature",
      "geometry": {
        "type": "Point",
        "coordinates": [
          -87.64684910534488,
          41.94496418916936
        ]
      },
      "properties": {
        "group_id": "one-northside-organizing-neighborhoods-for-equality",
        "name": "ONE Northside (Organizing Neighborhoods for Equality)",
        "location_name": "Neighbourhood Centroid",
        "address": "Rogers Park / Edgewater / Uptown / Lakeview / North Center / Lincoln Park",
        "verification_status": "VERIFIED",
        "category": "Community Organizing / Neighborhood Advocacy"
      }
    },
    {
      "type": "Feature",
      "geometry": {
        "type": "Point",
        "coordinates": [
          -87.66235498729903,
          41.85467444738461
        ]
      },
      "properties": {
        "group_id": "pilsen-neighbors-community-council-pncc",
        "name": "Pilsen Neighbors Community Council (PNCC)",
        "location_name": "Neighbourhood Centroid",
        "address": "Pilsen / Lower West Side",
        "verification_status": "VERIFIED",
        "category": "Community Organizing / Advocacy"
      }
    },
    {
      "type": "Feature",
      "geometry": {
        "type": "Point",
        "coordinates": [
          -87.74027845447418,
          41.88188925231901
        ]
      },
      "properties": {
        "group_id": "southwest-organizing-project-swop",
        "name": "Southwest Organizing Project (SWOP)",
        "location_name": "Neighbourhood Centroid",
        "address": "Southwest Side (West Elsdon / West Lawn / Gage Park / Chicago Lawn / Ashburn)",
        "verification_status": "VERIFIED",
        "category": "Community Organizing / Neighborhood Advocacy"
      }
    },
    {
      "type": "Feature",
      "geometry": {
        "type": "Point",
        "coordinates": [
          -87.76351140708508,
          41.89712949463926
        ]
      },
      "properties": {
        "group_id": "westside-health-authority-wha",
        "name": "Westside Health Authority (WHA)",
        "location_name": "Neighbourhood Centroid",
        "address": "Austin / West Side",
        "verification_status": "VERIFIED",
        "category": "Community Health / Neighborhood Development"
      }
    },
    {
      "type": "Feature",
      "geometry": {
        "type": "Point",
        "coordinates": [
          -87.72223826891275,
          41.90159093682761
        ]
      },
      "properties": {
        "group_id": "humboldt-park-solidarity-network-casa-hernandez",
        "name": "Humboldt Park Solidarity Network (Casa Hernandez)",
        "location_name": "Neighbourhood Centroid",
        "address": "Humboldt Park",
        "verification_status": "VERIFIED",
        "category": "Neighborhood Mutual Aid / Free Store"
      }
    },
    {
      "type": "Feature",
      "geometry": {
        "type": "Point",
        "coordinates": [
          -87.65134492500515,
          41.94529064745171
        ]
      },
      "properties": {
        "group_id": "lakeview-lincoln-park-mutual-aid-network-llma",
        "name": "Lakeview / Lincoln Park Mutual Aid Network (LLMA)",
        "location_name": "Neighbourhood Centroid",
        "address": "Lakeview / Lincoln Park",
        "verification_status": "VERIFIED",
        "category": "Neighborhood Mutual Aid Network"
      }
    },
    {
      "type": "Feature",
      "geometry": {
        "type": "Point",
        "coordinates": [
          -87.65039281834315,
          41.94296440914686
        ]
      },
      "properties": {
        "group_id": "howard-brown-health",
        "name": "Howard Brown Health",
        "location_name": "Neighbourhood Centroid",
        "address": "Multiple (Lakeview",
        "verification_status": "VERIFIED",
        "category": "LGBTQ+ Healthcare"
      }
    },
    {
      "type": "Feature",
      "geometry": {
        "type": "Point",
        "coordinates": [
          -87.65603926356384,
          41.974740778933395
        ]
      },
      "properties": {
        "group_id": "test-positive-aware-network-tpan",
        "name": "Test Positive Aware Network (TPAN)",
        "location_name": "Neighbourhood Centroid",
        "address": "Uptown",
        "verification_status": "VERIFIED",
        "category": "HIV/AIDS Support / Harm Reduction"
      }
    },
    {
      "type": "Feature",
      "geometry": {
        "type": "Point",
        "coordinates": [
          -87.74199948116667,
          41.88441173858109
        ]
      },
      "properties": {
        "group_id": "chicago-lighthouse",
        "name": "Chicago Lighthouse",
        "location_name": "Neighbourhood Centroid",
        "address": "Near West Side",
        "verification_status": "VERIFIED",
        "category": "Disability / Vision Services"
      }
    },
    {
      "type": "Feature",
      "geometry": {
        "type": "Point",
        "coordinates": [
          -87.7245453383997,
          41.953989274410084
        ]
      },
      "properties": {
        "group_id": "communityhealth",
        "name": "CommunityHealth",
        "location_name": "Neighbourhood Centroid",
        "address": "Ukrainian Village / Irving Park",
        "verification_status": "VERIFIED",
        "category": "Free Clinic / Primary Care"
      }
    },
    {
      "type": "Feature",
      "geometry": {
        "type": "Point",
        "coordinates": [
          -87.72392599708436,
          41.8989119283482
        ]
      },
      "properties": {
        "group_id": "connections-for-abused-women-and-their-children-cawc",
        "name": "Connections for Abused Women and Their Children (CAWC)",
        "location_name": "Neighbourhood Centroid",
        "address": "Humboldt Park",
        "verification_status": "VERIFIED",
        "category": "Domestic Violence / Health"
      }
    },
    {
      "type": "Feature",
      "geometry": {
        "type": "Point",
        "coordinates": [
          -87.6604585804972,
          41.97095769131007
        ]
      },
      "properties": {
        "group_id": "heartland-health-outreach",
        "name": "Heartland Health Outreach",
        "location_name": "Neighbourhood Centroid",
        "address": "Uptown / Citywide",
        "verification_status": "VERIFIED",
        "category": "Community Health Center"
      }
    },
    {
      "type": "Feature",
      "geometry": {
        "type": "Point",
        "coordinates": [
          -87.6574034412544,
          41.97316990649021
        ]
      },
      "properties": {
        "group_id": "nami-chicago",
        "name": "NAMI Chicago",
        "location_name": "Neighbourhood Centroid",
        "address": "Uptown",
        "verification_status": "VERIFIED",
        "category": "Mental Health"
      }
    },
    {
      "type": "Feature",
      "geometry": {
        "type": "Point",
        "coordinates": [
          -87.7419750719577,
          41.88356134338628
        ]
      },
      "properties": {
        "group_id": "rush-university-medical-center",
        "name": "Rush University Medical Center",
        "location_name": "Neighbourhood Centroid",
        "address": "Near West Side",
        "verification_status": "VERIFIED",
        "category": "Hospital / Health System"
      }
    },
    {
      "type": "Feature",
      "geometry": {
        "type": "Point",
        "coordinates": [
          -87.66005157082914,
          41.85324244095294
        ]
      },
      "properties": {
        "group_id": "saint-anthony-hospital",
        "name": "Saint Anthony Hospital",
        "location_name": "Neighbourhood Centroid",
        "address": "West Side / Pilsen",
        "verification_status": "VERIFIED",
        "category": "Hospital / Health System"
      }
    },
    {
      "type": "Feature",
      "geometry": {
        "type": "Point",
        "coordinates": [
          -87.72222484542016,
          41.89792426206668
        ]
      },
      "properties": {
        "group_id": "sinai-chicago-mount-sinai-hospital",
        "name": "Sinai Chicago (Mount Sinai Hospital)",
        "location_name": "Neighbourhood Centroid",
        "address": "North Lawndale / Humboldt Park",
        "verification_status": "VERIFIED",
        "category": "Hospital / Health System"
      }
    },
    {
      "type": "Feature",
      "geometry": {
        "type": "Point",
        "coordinates": [
          -87.59609616716,
          41.794768819226746
        ]
      },
      "properties": {
        "group_id": "uchicago-medicine-comer-children-s-hospital",
        "name": "UChicago Medicine / Comer Children's Hospital",
        "location_name": "Neighbourhood Centroid",
        "address": "Hyde Park",
        "verification_status": "VERIFIED",
        "category": "Hospital / Health System"
      }
    },
    {
      "type": "Feature",
      "geometry": {
        "type": "Point",
        "coordinates": [
          -87.7424280927492,
          41.88393599092546
        ]
      },
      "properties": {
        "group_id": "ui-health-university-of-illinois-hospital",
        "name": "UI Health (University of Illinois Hospital)",
        "location_name": "Neighbourhood Centroid",
        "address": "Near West Side / Medical District",
        "verification_status": "VERIFIED",
        "category": "Hospital / Health System"
      }
    },
    {
      "type": "Feature",
      "geometry": {
        "type": "Point",
        "coordinates": [
          -87.71898338432732,
          41.881158216561296
        ]
      },
      "properties": {
        "group_id": "bethel-new-life",
        "name": "Bethel New Life",
        "location_name": "Neighbourhood Centroid",
        "address": "West Garfield Park",
        "verification_status": "VERIFIED",
        "category": "Community Development/Housing"
      }
    },
    {
      "type": "Feature",
      "geometry": {
        "type": "Point",
        "coordinates": [
          -87.73777591182417,
          41.883948563860535
        ]
      },
      "properties": {
        "group_id": "greater-southwest-development-corporation-gsdc",
        "name": "Greater Southwest Development Corporation (GSDC)",
        "location_name": "Neighbourhood Centroid",
        "address": "Chicago Lawn / Southwest Side",
        "verification_status": "VERIFIED",
        "category": "Commercial & Economic Development"
      }
    },
    {
      "type": "Feature",
      "geometry": {
        "type": "Point",
        "coordinates": [
          -87.6198549914167,
          41.760174368406965
        ]
      },
      "properties": {
        "group_id": "far-south-community-development-corporation",
        "name": "Far South Community Development Corporation",
        "location_name": "Neighbourhood Centroid",
        "address": "Far South Side / South Suburbs",
        "verification_status": "VERIFIED",
        "category": "Economic & Community Development"
      }
    },
    {
      "type": "Feature",
      "geometry": {
        "type": "Point",
        "coordinates": [
          -87.74066940051661,
          41.88437515771878
        ]
      },
      "properties": {
        "group_id": "near-west-side-community-development-corporation-nwscdc",
        "name": "Near West Side Community Development Corporation (NWSCDC)",
        "location_name": "Neighbourhood Centroid",
        "address": "Near West Side",
        "verification_status": "VERIFIED",
        "category": "Community Development/Social Services"
      }
    },
    {
      "type": "Feature",
      "geometry": {
        "type": "Point",
        "coordinates": [
          -87.66421010657109,
          41.751109279225496
        ]
      },
      "properties": {
        "group_id": "neighborhood-housing-services-of-chicago-nhs",
        "name": "Neighborhood Housing Services of Chicago (NHS)",
        "location_name": "Neighbourhood Centroid",
        "address": "Citywide (Auburn Gresham",
        "verification_status": "VERIFIED",
        "category": "Housing/Community Development"
      }
    },
    {
      "type": "Feature",
      "geometry": {
        "type": "Point",
        "coordinates": [
          -87.66070246823955,
          41.75082151828762
        ]
      },
      "properties": {
        "group_id": "greater-auburn-gresham-development-corporation-gadc",
        "name": "Greater Auburn-Gresham Development Corporation (GADC)",
        "location_name": "Neighbourhood Centroid",
        "address": "Auburn Gresham",
        "verification_status": "VERIFIED",
        "category": "Economic & Community Development"
      }
    },
    {
      "type": "Feature",
      "geometry": {
        "type": "Point",
        "coordinates": [
          -87.66065695914223,
          41.85440068659855
        ]
      },
      "properties": {
        "group_id": "pilsen-neighbors-community-council",
        "name": "Pilsen Neighbors Community Council",
        "location_name": "Neighbourhood Centroid",
        "address": "Pilsen",
        "verification_status": "VERIFIED",
        "category": "Community Development/Organizing"
      }
    },
    {
      "type": "Feature",
      "geometry": {
        "type": "Point",
        "coordinates": [
          -87.66237621525872,
          41.855757185657055
        ]
      },
      "properties": {
        "group_id": "the-resurrection-project",
        "name": "The Resurrection Project",
        "location_name": "Neighbourhood Centroid",
        "address": "Pilsen / Little Village / Back of the Yards",
        "verification_status": "VERIFIED",
        "category": "Affordable Housing & Community Development"
      }
    },
    {
      "type": "Feature",
      "geometry": {
        "type": "Point",
        "coordinates": [
          -87.6448321870381,
          41.77248953448047
        ]
      },
      "properties": {
        "group_id": "greater-englewood-community-development-corporation-gecdc",
        "name": "Greater Englewood Community Development Corporation (GECDC)",
        "location_name": "Neighbourhood Centroid",
        "address": "Englewood",
        "verification_status": "VERIFIED",
        "category": "Economic & Community Development"
      }
    },
    {
      "type": "Feature",
      "geometry": {
        "type": "Point",
        "coordinates": [
          -87.61888783631804,
          41.82347162874431
        ]
      },
      "properties": {
        "group_id": "quad-communities-development-corporation-qcdc",
        "name": "Quad Communities Development Corporation (QCDC)",
        "location_name": "Neighbourhood Centroid",
        "address": "Bronzeville / Douglas / Grand Boulevard / Oakland",
        "verification_status": "VERIFIED",
        "category": "Community Development/Planning"
      }
    },
    {
      "type": "Feature",
      "geometry": {
        "type": "Point",
        "coordinates": [
          -87.76606381134755,
          41.900284974172465
        ]
      },
      "properties": {
        "group_id": "westside-health-authority",
        "name": "Westside Health Authority",
        "location_name": "Neighbourhood Centroid",
        "address": "Austin",
        "verification_status": "VERIFIED",
        "category": "Health & Community Development"
      }
    },
    {
      "type": "Feature",
      "geometry": {
        "type": "Point",
        "coordinates": [
          -87.65200468176727,
          41.82895312035451
        ]
      },
      "properties": {
        "group_id": "coalition-for-a-better-chinese-american-community-cbcac",
        "name": "Coalition for a Better Chinese American Community (CBCAC)",
        "location_name": "Neighbourhood Centroid",
        "address": "Chinatown / Bridgeport",
        "verification_status": "VERIFIED",
        "category": "Community Development/Advocacy"
      }
    },
    {
      "type": "Feature",
      "geometry": {
        "type": "Point",
        "coordinates": [
          -87.72290662360865,
          41.90038908102601
        ]
      },
      "properties": {
        "group_id": "spanish-coalition-for-housing",
        "name": "Spanish Coalition for Housing",
        "location_name": "Neighbourhood Centroid",
        "address": "Humboldt Park / Citywide",
        "verification_status": "VERIFIED",
        "category": "Affordable Housing/Community Development"
      }
    },
    {
      "type": "Feature",
      "geometry": {
        "type": "Point",
        "coordinates": [
          -87.76545293459854,
          41.89723700540175
        ]
      },
      "properties": {
        "group_id": "south-austin-coalition-community-council",
        "name": "South Austin Coalition Community Council",
        "location_name": "Neighbourhood Centroid",
        "address": "Austin",
        "verification_status": "LIKELY_ACTIVE",
        "category": "Community Organizing/Development"
      }
    },
    {
      "type": "Feature",
      "geometry": {
        "type": "Point",
        "coordinates": [
          -87.6200878719294,
          41.76206319758655
        ]
      },
      "properties": {
        "group_id": "people-for-community-recovery-pcr",
        "name": "People for Community Recovery (PCR)",
        "location_name": "Neighbourhood Centroid",
        "address": "Altgeld Gardens / Far South Side",
        "verification_status": "VERIFIED",
        "category": "Environmental Justice/Community Organizing"
      }
    },
    {
      "type": "Feature",
      "geometry": {
        "type": "Point",
        "coordinates": [
          -87.66340829717231,
          41.85248842447074
        ]
      },
      "properties": {
        "group_id": "pilsen-environmental-rights-and-reform-organization-perro",
        "name": "Pilsen Environmental Rights and Reform Organization (PERRO)",
        "location_name": "Neighbourhood Centroid",
        "address": "Pilsen",
        "verification_status": "VERIFIED",
        "category": "Environmental Justice/Community Organizing"
      }
    },
    {
      "type": "Feature",
      "geometry": {
        "type": "Point",
        "coordinates": [
          -87.73775510650465,
          41.88440293010858
        ]
      },
      "properties": {
        "group_id": "neighbors-for-environmental-justice-n4ej",
        "name": "Neighbors For Environmental Justice (N4EJ)",
        "location_name": "Neighbourhood Centroid",
        "address": "Southwest Side / Citywide",
        "verification_status": "VERIFIED",
        "category": "Environmental Justice/Community Organizing"
      }
    },
    {
      "type": "Feature",
      "geometry": {
        "type": "Point",
        "coordinates": [
          -87.61878340492416,
          41.758328183940705
        ]
      },
      "properties": {
        "group_id": "community-awareness-response-encouraging-sustainability-cares",
        "name": "Community Awareness Response Encouraging Sustainability (CARES)",
        "location_name": "Neighbourhood Centroid",
        "address": "South Side",
        "verification_status": "UNCERTAIN",
        "category": "Environmental Justice/Education"
      }
    },
    {
      "type": "Feature",
      "geometry": {
        "type": "Point",
        "coordinates": [
          -87.66178774885634,
          41.85654012550048
        ]
      },
      "properties": {
        "group_id": "centro-comunitario-juan-diego",
        "name": "Centro Comunitario Juan Diego",
        "location_name": "Neighbourhood Centroid",
        "address": "Pilsen",
        "verification_status": "LIKELY_ACTIVE",
        "category": "Environmental Justice/Community Services"
      }
    },
    {
      "type": "Feature",
      "geometry": {
        "type": "Point",
        "coordinates": [
          -87.61863641801183,
          41.7585630923956
        ]
      },
      "properties": {
        "group_id": "chifresh-kitchen",
        "name": "ChiFresh Kitchen",
        "location_name": "Neighbourhood Centroid",
        "address": "Greater Grand Crossing / South Side",
        "verification_status": "VERIFIED",
        "category": "Worker Cooperative / Food Service"
      }
    },
    {
      "type": "Feature",
      "geometry": {
        "type": "Point",
        "coordinates": [
          -87.76392880217992,
          41.900546170964255
        ]
      },
      "properties": {
        "group_id": "chicago-tool-library",
        "name": "Chicago Tool Library",
        "location_name": "Neighbourhood Centroid",
        "address": "Austin / West Side",
        "verification_status": "VERIFIED",
        "category": "Sharing Economy / Community Cooperative"
      }
    },
    {
      "type": "Feature",
      "geometry": {
        "type": "Point",
        "coordinates": [
          -87.64473325403667,
          41.77187189229486
        ]
      },
      "properties": {
        "group_id": "grow-greater-englewood-gge",
        "name": "Grow Greater Englewood (GGE)",
        "location_name": "Neighbourhood Centroid",
        "address": "Englewood",
        "verification_status": "VERIFIED",
        "category": "Food Justice / Urban Agriculture / Economic Development"
      }
    },
    {
      "type": "Feature",
      "geometry": {
        "type": "Point",
        "coordinates": [
          -87.65878144818215,
          41.9721778765189
        ]
      },
      "properties": {
        "group_id": "new-era-windows-cooperative",
        "name": "New Era Windows Cooperative",
        "location_name": "Neighbourhood Centroid",
        "address": "Goose Island / Near North Side",
        "verification_status": "VERIFIED",
        "category": "Worker Cooperative / Manufacturing"
      }
    },
    {
      "type": "Feature",
      "geometry": {
        "type": "Point",
        "coordinates": [
          -87.59363521138783,
          41.77371302632869
        ]
      },
      "properties": {
        "group_id": "southside-together-organizing-for-power-stop",
        "name": "Southside Together Organizing for Power (STOP)",
        "location_name": "Neighbourhood Centroid",
        "address": "Woodlawn / South Side",
        "verification_status": "VERIFIED",
        "category": "Community Organizing / Economic Justice"
      }
    },
    {
      "type": "Feature",
      "geometry": {
        "type": "Point",
        "coordinates": [
          -87.62046626740047,
          41.761788561965425
        ]
      },
      "properties": {
        "group_id": "ujamaa-community-land-trust",
        "name": "Ujamaa Community Land Trust",
        "location_name": "Neighbourhood Centroid",
        "address": "South Side",
        "verification_status": "LIKELY_ACTIVE",
        "category": "Community Land Trust / Economic Justice"
      }
    },
    {
      "type": "Feature",
      "geometry": {
        "type": "Point",
        "coordinates": [
          -87.73972957430115,
          41.88364240414362
        ]
      },
      "properties": {
        "group_id": "warehouse-workers-for-justice-wwj",
        "name": "Warehouse Workers for Justice (WWJ)",
        "location_name": "Neighbourhood Centroid",
        "address": "Southwest Side / Citywide",
        "verification_status": "VERIFIED",
        "category": "Labor Justice / Worker Rights"
      }
    },
    {
      "type": "Feature",
      "geometry": {
        "type": "Point",
        "coordinates": [
          -87.66412311447631,
          41.9966890166011
        ]
      },
      "properties": {
        "group_id": "wild-onion-market",
        "name": "Wild Onion Market",
        "location_name": "Neighbourhood Centroid",
        "address": "Rogers Park",
        "verification_status": "VERIFIED",
        "category": "Consumer Cooperative / Food Justice"
      }
    },
    {
      "type": "Feature",
      "geometry": {
        "type": "Point",
        "coordinates": [
          -87.6192315946963,
          41.76182430319663
        ]
      },
      "properties": {
        "group_id": "family-rescue",
        "name": "Family Rescue",
        "location_name": "Neighbourhood Centroid",
        "address": "South Side (Stony Island Ave)",
        "verification_status": "VERIFIED",
        "category": "Domestic Violence Shelter & Services"
      }
    },
    {
      "type": "Feature",
      "geometry": {
        "type": "Point",
        "coordinates": [
          -87.66204436307018,
          41.97107871090965
        ]
      },