{
  "type": "FeatureCollection",
  "features": [
    {
      "type": "Feature",
      "geometry": {
        "type": "Point",
        "coordinates": [
          -87.654278,
          41.764971
        ]
      },
      "properties": {
        "group_id": "cooperation-racine",
        "name": "Cooperation Racine",
        "location_name": "",
        "address": "1201 W 71st St",
        "verification_status": "VERIFIED",
        "category": "Worker Co-ops & Economic Justice"
      }
    },
    {
      "type": "Feature",
      "geometry": {
        "type": "Point",
        "coordinates": [
          -87.6411518,
          41.8378541
        ]
      },
      "properties": {
        "group_id": "mouse-arts-letters",
        "name": "Unknown Group",
        "location_name": "",
        "address": "555 W 31st St",
        "verification_status": "UNCERTAIN",
        "category": ""
      }
    },
    {
      "type": "Feature",
      "geometry": {
        "type": "Point",
        "coordinates": [
          -87.6565482,
          41.8309771
        ]
      },
      "properties": {
        "group_id": "bridgeport-alliance",
        "name": "Bridgeport Alliance",
        "location_name": "",
        "address": "1200 W 35th St",
        "verification_status": "VERIFIED",
        "category": "Community Advocacy"
      }
    },
    {
      "type": "Feature",
      "geometry": {
        "type": "Point",
        "coordinates": [
          -87.6238726,
          41.7378107
        ]
      },
      "properties": {
        "group_id": "chatham-avalon-ministries",
        "name": "Chatham-Avalon Ministries",
        "location_name": "",
        "address": "8601 S State St",
        "verification_status": "VERIFIED",
        "category": "Food Security"
      }
    },
    {
      "type": "Feature",
      "geometry": {
        "type": "Point",
        "coordinates": [
          -87.6211704,
          41.6964894
        ]
      },
      "properties": {
        "group_id": "roseland-christian-ministries",
        "name": "Roseland Christian Ministries",
        "location_name": "",
        "address": "10858 S Michigan Ave",
        "verification_status": "VERIFIED",
        "category": "Food Security"
      }
    },
    {
      "type": "Feature",
      "geometry": {
        "type": "Point",
        "coordinates": [
          -87.6418495,
          41.68791
        ]
      },
      "properties": {
        "group_id": "sheldon-heights-pantry",
        "name": "Unknown Group",
        "location_name": "",
        "address": "11325 S Halsted St",
        "verification_status": "UNCERTAIN",
        "category": ""
      }
    },
    {
      "type": "Feature",
      "geometry": {
        "type": "Point",
        "coordinates": [
          -87.6519522,
          41.7507436
        ]
      },
      "properties": {
        "group_id": "st-sabina-pantry",
        "name": "Unknown Group",
        "location_name": "",
        "address": "1120 W 79th St",
        "verification_status": "UNCERTAIN",
        "category": ""
      }
    },
    {
      "type": "Feature",
      "geometry": {
        "type": "Point",
        "coordinates": [
          -87.6558462,
          41.9734307
        ]
      },
      "properties": {
        "group_id": "chinese-mutual-aid",
        "name": "Unknown Group",
        "location_name": "",
        "address": "1016 W Argyle St",
        "verification_status": "UNCERTAIN",
        "category": ""
      }
    },
    {
      "type": "Feature",
      "geometry": {
        "type": "Point",
        "coordinates": [
          -87.6291299,
          41.8829338
        ]
      },
      "properties": {
        "group_id": "cvls",
        "name": "Unknown Group",
        "location_name": "",
        "address": "33 N Dearborn St",
        "verification_status": "UNCERTAIN",
        "category": ""
      }
    },
    {
      "type": "Feature",
      "geometry": {
        "type": "Point",
        "coordinates": [
          -87.716317,
          41.887647
        ]
      },
      "properties": {
        "group_id": "garfield-park-cc",
        "name": "Unknown Group",
        "location_name": "",
        "address": "300 N Central Park Ave",
        "verification_status": "UNCERTAIN",
        "category": ""
      }
    },
    {
      "type": "Feature",
      "geometry": {
        "type": "Point",
        "coordinates": [
          -87.6595159,
          41.8277727
        ]
      },
      "properties": {
        "group_id": "love-fridge-chicago",
        "name": "Unknown Group",
        "location_name": "The Fridge on Marz",
        "address": "3630 S Iron St",
        "verification_status": "UNCERTAIN",
        "category": ""
      }
    },
    {
      "type": "Feature",
      "geometry": {
        "type": "Point",
        "coordinates": [
          -87.5313533,
          41.6916639
        ]
      },
      "properties": {
        "group_id": "love-fridge-chicago",
        "name": "Unknown Group",
        "location_name": "The Kindness Korner",
        "address": "11201 S Ave G",
        "verification_status": "UNCERTAIN",
        "category": ""
      }
    },
    {
      "type": "Feature",
      "geometry": {
        "type": "Point",
        "coordinates": [
          -87.6946065,
          41.8536568
        ]
      },
      "properties": {
        "group_id": "love-fridge-chicago",
        "name": "Unknown Group",
        "location_name": "The Love Shack",
        "address": "2751 W 21st St",
        "verification_status": "UNCERTAIN",
        "category": ""
      }
    },
    {
      "type": "Feature",
      "geometry": {
        "type": "Point",
        "coordinates": [
          -87.7074257,
          41.9174776
        ]
      },
      "properties": {
        "group_id": "love-fridge-chicago",
        "name": "Unknown Group",
        "location_name": "BInk Food Bank",
        "address": "3206 W Armitage Ave",
        "verification_status": "UNCERTAIN",
        "category": ""
      }
    },
    {
      "type": "Feature",
      "geometry": {
        "type": "Point",
        "coordinates": [
          -87.6620178,
          41.8562604
        ]
      },
      "properties": {
        "group_id": "love-fridge-chicago",
        "name": "Unknown Group",
        "location_name": "Comida Para el Pueblo",
        "address": "1855 S Blue Island Ave",
        "verification_status": "UNCERTAIN",
        "category": ""
      }
    },
    {
      "type": "Feature",
      "geometry": {
        "type": "Point",
        "coordinates": [
          -87.6497246,
          41.7785766
        ]
      },
      "properties": {
        "group_id": "love-fridge-chicago",
        "name": "Unknown Group",
        "location_name": "Getting Grown Collective",
        "address": "6344 S Morgan St",
        "verification_status": "UNCERTAIN",
        "category": ""
      }
    },
    {
      "type": "Feature",
      "geometry": {
        "type": "Point",
        "coordinates": [
          -87.7222975,
          41.7730604
        ]
      },
      "properties": {
        "group_id": "love-fridge-chicago",
        "name": "Unknown Group",
        "location_name": "Good Neighbor Love Fridge",
        "address": "6601 S Pulaski Rd",
        "verification_status": "UNCERTAIN",
        "category": ""
      }
    },
    {
      "type": "Feature",
      "geometry": {
        "type": "Point",
        "coordinates": [
          -87.6151687,
          41.7603438
        ]
      },
      "properties": {
        "group_id": "love-fridge-chicago",
        "name": "Unknown Group",
        "location_name": "Sacred Keepers Love Fridge",
        "address": "4445 S King Dr",
        "verification_status": "UNCERTAIN",
        "category": ""
      }
    },
    {
      "type": "Feature",
      "geometry": {
        "type": "Point",
        "coordinates": [
          -87.56404,
          41.7606293
        ]
      },
      "properties": {
        "group_id": "love-fridge-chicago",
        "name": "Unknown Group",
        "location_name": "South Shore Love Fridge",
        "address": "2465 E 74th St",
        "verification_status": "UNCERTAIN",
        "category": ""
      }
    },
    {
      "type": "Feature",
      "geometry": {
        "type": "Point",
        "coordinates": [
          -87.6719365,
          41.8000647
        ]
      },
      "properties": {
        "group_id": "love-fridge-chicago",
        "name": "Unknown Group",
        "location_name": "Star Farm Love Fridge",
        "address": "5155 S Wolcott Ave",
        "verification_status": "UNCERTAIN",
        "category": ""
      }
    },
    {
      "type": "Feature",
      "geometry": {
        "type": "Point",
        "coordinates": [
          -87.7161716,
          41.8629262
        ]
      },
      "properties": {
        "group_id": "love-fridge-chicago",
        "name": "Unknown Group",
        "location_name": "Stone Temple Fridge",
        "address": "3622 W Douglas Blvd",
        "verification_status": "UNCERTAIN",
        "category": ""
      }
    },
    {
      "type": "Feature",
      "geometry": {
        "type": "Point",
        "coordinates": [
          -87.64835345134215,
          41.83048247679381
        ]
      },
      "properties": {
        "group_id": "urban-growers-collective",
        "name": "Urban Growers Collective",
        "location_name": "Neighborhood Centroid",
        "address": "Bridgeport/Armour",
        "verification_status": "VERIFIED",
        "category": "Food Security"
      }
    },
    {
      "type": "Feature",
      "geometry": {
        "type": "Point",
        "coordinates": [
          -87.59041014976327,
          41.776897320764405
        ]
      },
      "properties": {
        "group_id": "southside-nature-play",
        "name": "Southside Nature Play",
        "location_name": "Neighborhood Centroid",
        "address": "Woodlawn",
        "verification_status": "LIKELY_ACTIVE",
        "category": "Environmental & Green Space"
      }
    },
    {
      "type": "Feature",
      "geometry": {
        "type": "Point",
        "coordinates": [
          -87.61565732454262,
          41.821935887653055
        ]
      },
      "properties": {
        "group_id": "lake-meadows-park-advisory-council",
        "name": "Lake Meadows Park Advisory Council",
        "location_name": "Neighborhood Centroid",
        "address": "Bronzeville",
        "verification_status": "UNCERTAIN",
        "category": "Environmental & Green Space"
      }
    },
    {
      "type": "Feature",
      "geometry": {
        "type": "Point",
        "coordinates": [
          -87.61710681037255,
          41.82181806881724
        ]
      },
      "properties": {
        "group_id": "mouse-arts--letters-social-club",
        "name": "Mouse Arts & Letters Social Club",
        "location_name": "Neighborhood Centroid",
        "address": "Bronzeville",
        "verification_status": "UNCERTAIN",
        "category": "Arts & Culture"
      }
    },
    {
      "type": "Feature",
      "geometry": {
        "type": "Point",
        "coordinates": [
          -87.7059171642221,
          41.941582862019935
        ]
      },
      "properties": {
        "group_id": "avondale-mutual-aid",
        "name": "Avondale Mutual Aid",
        "location_name": "Neighborhood Centroid",
        "address": "Avondale",
        "verification_status": "VERIFIED",
        "category": "Mutual Aid - General"
      }
    },
    {
      "type": "Feature",
      "geometry": {
        "type": "Point",
        "coordinates": [
          -87.65741532238917,
          41.98973436999625
        ]
      },
      "properties": {
        "group_id": "edgewater-mutual-aid-eman",
        "name": "Edgewater Mutual Aid (EMAN)",
        "location_name": "Neighborhood Centroid",
        "address": "Edgewater",
        "verification_status": "VERIFIED",
        "category": "Mutual Aid - General"
      }
    },
    {
      "type": "Feature",
      "geometry": {
        "type": "Point",
        "coordinates": [
          -87.6865986572889,
          42.04477821589975
        ]
      },
      "properties": {
        "group_id": "evanston-community-fridges",
        "name": "Evanston Community Fridges",
        "location_name": "Neighborhood Centroid",
        "address": "Evanston",
        "verification_status": "VERIFIED",
        "category": "Food Security"
      }
    },
    {
      "type": "Feature",
      "geometry": {
        "type": "Point",
        "coordinates": [
          -87.7072180246761,
          41.920428446096295
        ]
      },
      "properties": {
        "group_id": "logan-square-mutual-aid",
        "name": "Logan Square Mutual Aid",
        "location_name": "Neighborhood Centroid",
        "address": "Logan Square",
        "verification_status": "VERIFIED",
        "category": "Mutual Aid - General"
      }
    },
    {
      "type": "Feature",
      "geometry": {
        "type": "Point",
        "coordinates": [
          -87.66216511491483,
          41.854788128741426
        ]
      },
      "properties": {
        "group_id": "pilsen-solidarity-network",
        "name": "Pilsen Solidarity Network",
        "location_name": "Neighborhood Centroid",
        "address": "Pilsen",
        "verification_status": "VERIFIED",
        "category": "Mutual Aid - General"
      }
    },
    {
      "type": "Feature",
      "geometry": {
        "type": "Point",
        "coordinates": [
          -87.76694978219831,
          41.89768774150912
        ]
      },
      "properties": {
        "group_id": "westside-mutual-aid",
        "name": "Westside Mutual Aid",
        "location_name": "Neighborhood Centroid",
        "address": "Austin",
        "verification_status": "VERIFIED",
        "category": "Mutual Aid - General"
      }
    },
    {
      "type": "Feature",
      "geometry": {
        "type": "Point",
        "coordinates": [
          -87.7271808048712,
          41.96792827303344
        ]
      },
      "properties": {
        "group_id": "albany-park-mutual-aid",
        "name": "Albany Park Mutual Aid",
        "location_name": "Neighborhood Centroid",
        "address": "Albany Park",
        "verification_status": "VERIFIED",
        "category": "Mutual Aid - General"
      }
    },
    {
      "type": "Feature",
      "geometry": {
        "type": "Point",
        "coordinates": [
          -87.71975714832546,
          41.901178858532525
        ]
      },
      "properties": {
        "group_id": "hp-solidarity-network",
        "name": "HP Solidarity Network",
        "location_name": "Neighborhood Centroid",
        "address": "Humboldt Park",
        "verification_status": "VERIFIED",
        "category": "Mutual Aid - General"
      }
    },
    {
      "type": "Feature",
      "geometry": {
        "type": "Point",
        "coordinates": [
          -87.72617855951874,
          41.953071699857105
        ]
      },
      "properties": {
        "group_id": "irving-park-mutual-aid",
        "name": "Irving Park Mutual Aid",
        "location_name": "Neighborhood Centroid",
        "address": "Irving Park",
        "verification_status": "VERIFIED",
        "category": "Mutual Aid - General"
      }
    },
    {
      "type": "Feature",
      "geometry": {
        "type": "Point",
        "coordinates": [
          -87.7555046225789,
          41.96936941893328
        ]
      },
      "properties": {
        "group_id": "mayfair-mutual-aid",
        "name": "Mayfair Mutual Aid",
        "location_name": "Neighborhood Centroid",
        "address": "Mayfair",
        "verification_status": "VERIFIED",
        "category": "Mutual Aid - General"
      }
    },
    {
      "type": "Feature",
      "geometry": {
        "type": "Point",
        "coordinates": [
          -87.66191294936942,
          42.000330193844206
        ]
      },
      "properties": {
        "group_id": "po-box-collective",
        "name": "PO Box Collective",
        "location_name": "Neighborhood Centroid",
        "address": "Rogers Park",
        "verification_status": "VERIFIED",
        "category": "Social Justice"
      }
    },
    {
      "type": "Feature",
      "geometry": {
        "type": "Point",
        "coordinates": [
          -87.61845465269863,
          41.75822287212229
        ]
      },
      "properties": {
        "group_id": "southside-together",
        "name": "Southside Together",
        "location_name": "Neighborhood Centroid",
        "address": "South Side",
        "verification_status": "VERIFIED",
        "category": "Social Justice"
      }
    },
    {
      "type": "Feature",
      "geometry": {
        "type": "Point",
        "coordinates": [
          -87.7384273665586,
          41.88406800482646
        ]
      },
      "properties": {
        "group_id": "southwest-collective",
        "name": "Southwest Collective",
        "location_name": "Neighborhood Centroid",
        "address": "Southwest Side",
        "verification_status": "VERIFIED",
        "category": "Community Advocacy"
      }
    },
    {
      "type": "Feature",
      "geometry": {
        "type": "Point",
        "coordinates": [
          -87.61891966090884,
          41.76190546039853
        ]
      },
      "properties": {
        "group_id": "brave-space-alliance",
        "name": "Brave Space Alliance",
        "location_name": "Neighborhood Centroid",
        "address": "South Side",
        "verification_status": "VERIFIED",
        "category": "Healthcare & Wellness"
      }
    },
    {
      "type": "Feature",
      "geometry": {
        "type": "Point",
        "coordinates": [
          -87.62138852394533,
          41.76144843416283
        ]
      },
      "properties": {
        "group_id": "chicago-united-solidarity-project-cusp",
        "name": "Chicago United Solidarity Project (CUSP)",
        "location_name": "Neighborhood Centroid",
        "address": "South Side",
        "verification_status": "VERIFIED",
        "category": "Mutual Aid - General"
      }
    },
    {
      "type": "Feature",
      "geometry": {
        "type": "Point",
        "coordinates": [
          -87.65889201987062,
          41.97138668253417
        ]
      },
      "properties": {
        "group_id": "chinese-mutual-aid-association-cmaa",
        "name": "Chinese Mutual Aid Association (CMAA)",
        "location_name": "Neighborhood Centroid",
        "address": "Uptown/Argyle",
        "verification_status": "VERIFIED",
        "category": "Migrant & Immigrant Support"
      }
    },
    {
      "type": "Feature",
      "geometry": {
        "type": "Point",
        "coordinates": [
          -87.6184079471723,
          41.76063331967959
        ]
      },
      "properties": {
        "group_id": "market-box-chicago",
        "name": "Market Box Chicago",
        "location_name": "Neighborhood Centroid",
        "address": "South Side",
        "verification_status": "VERIFIED",
        "category": "Food Security"
      }
    },
    {
      "type": "Feature",
      "geometry": {
        "type": "Point",
        "coordinates": [
          -87.6465926149206,
          41.94373609462967
        ]
      },
      "properties": {
        "group_id": "lakeview-lincoln-park-mutual-aid",
        "name": "Lakeview/Lincoln Park Mutual Aid",
        "location_name": "Neighborhood Centroid",
        "address": "Lakeview",
        "verification_status": "VERIFIED",
        "category": "Mutual Aid - General"
      }
    },
    {
      "type": "Feature",
      "geometry": {
        "type": "Point",
        "coordinates": [
          -87.74036931863468,
          41.880842015926746
        ]
      },
      "properties": {
        "group_id": "northwest-side-solidarity-network",
        "name": "Northwest Side Solidarity Network",
        "location_name": "Neighborhood Centroid",
        "address": "Northwest Side",
        "verification_status": "VERIFIED",
        "category": "Mutual Aid - General"
      }
    },
    {
      "type": "Feature",
      "geometry": {
        "type": "Point",
        "coordinates": [
          -87.66207671107685,
          41.99987277848063
        ]
      },
      "properties": {
        "group_id": "one-northside",
        "name": "ONE Northside",
        "location_name": "Neighborhood Centroid",
        "address": "Rogers Park",
        "verification_status": "VERIFIED",
        "category": "Community Advocacy"
      }
    },
    {
      "type": "Feature",
      "geometry": {
        "type": "Point",
        "coordinates": [
          -87.71807722785428,
          41.87998816406308
        ]
      },
      "properties": {
        "group_id": "garfield-park-community-council",
        "name": "Garfield Park Community Council",
        "location_name": "Neighborhood Centroid",
        "address": "Garfield Park",
        "verification_status": "VERIFIED",
        "category": "Food Security / Community Development"
      }
    },
    {
      "type": "Feature",
      "geometry": {
        "type": "Point",
        "coordinates": [
          -87.73971114040951,
          41.883253804604536
        ]
      },
      "properties": {
        "group_id": "john-walt-foundation",
        "name": "John Walt Foundation",
        "location_name": "Neighborhood Centroid",
        "address": "West Side",
        "verification_status": "VERIFIED",
        "category": "Food Security"
      }
    },
    {
      "type": "Feature",
      "geometry": {
        "type": "Point",
        "coordinates": [
          -87.6495276945608,
          41.94471619666433
        ]
      },
      "properties": {
        "group_id": "center-on-halsted",
        "name": "Center on Halsted",
        "location_name": "Neighborhood Centroid",
        "address": "Lakeview",
        "verification_status": "VERIFIED",
        "category": "LGBTQ+ Support"
      }
    },
    {
      "type": "Feature",
      "geometry": {
        "type": "Point",
        "coordinates": [
          -87.73877290701114,
          41.882200554003866
        ]
      },
      "properties": {
        "group_id": "chicago-environmental-justice-network-cejn",
        "name": "Chicago Environmental Justice Network (CEJN)",
        "location_name": "Neighborhood Centroid",
        "address": "South and West Sides",
        "verification_status": "VERIFIED",
        "category": "Environmental Justice"
      }
    },
    {
      "type": "Feature",
      "geometry": {
        "type": "Point",
        "coordinates": [
          -87.73756921180885,
          41.88269230091428
        ]
      },
      "properties": {
        "group_id": "sarah-s-inn",
        "name": "Sarah's Inn",
        "location_name": "Neighborhood Centroid",
        "address": "West Side",
        "verification_status": "VERIFIED",
        "category": "Domestic Violence Support"
      }
    },
    {
      "type": "Feature",
      "geometry": {
        "type": "Point",
        "coordinates": [
          -87.76390651751346,
          41.89756978886203
        ]
      },
      "properties": {
        "group_id": "westside-community-development-collaboration",
        "name": "Westside Community Development Collaboration",
        "location_name": "Neighborhood Centroid",
        "address": "Austin",
        "verification_status": "VERIFIED",
        "category": "Community Development"
      }
    },
    {
      "type": "Feature",
      "geometry": {
        "type": "Point",
        "coordinates": [
          -87.5953455619618,
          41.79796748719046
        ]
      },
      "properties": {
        "group_id": "uchrp-u-of-chicago-harm-reduction-project",
        "name": "UCHRP (U of Chicago Harm Reduction Project)",
        "location_name": "Neighborhood Centroid",
        "address": "Hyde Park / South Side",
        "verification_status": "VERIFIED",
        "category": "Harm Reduction"
      }
    },
    {
      "type": "Feature",
      "geometry": {
        "type": "Point",
        "coordinates": [
          -87.65881724377141,
          41.9714315134114
        ]
      },
      "properties": {
        "group_id": "american-indian-center-chicago",
        "name": "American Indian Center Chicago",
        "location_name": "Neighborhood Centroid",
        "address": "Uptown / Citywide",
        "verification_status": "VERIFIED",
        "category": "Indigenous Solidarity"
      }
    },
    {
      "type": "Feature",
      "geometry": {
        "type": "Point",
        "coordinates": [
          -87.59715070527002,
          41.79601755053801
        ]
      },
      "properties": {
        "group_id": "hyde-park-art-center",
        "name": "Hyde Park Art Center",
        "location_name": "Neighborhood Centroid",
        "address": "Hyde Park",
        "verification_status": "VERIFIED",
        "category": "Arts & Culture"
      }
    },
    {
      "type": "Feature",
      "geometry": {
        "type": "Point",
        "coordinates": [
          -87.62071287953054,
          41.693661411776034
        ]
      },
      "properties": {
        "group_id": "roseland-ceasefire",
        "name": "Roseland Ceasefire",
        "location_name": "Neighborhood Centroid",
        "address": "Roseland",
        "verification_status": "VERIFIED",
        "category": "Community Advocacy"
      }
    },
    {
      "type": "Feature",
      "geometry": {
        "type": "Point",
        "coordinates": [
          -87.6197114058442,
          41.69081088446309
        ]
      },
      "properties": {
        "group_id": "sheldon-heights-coc-food-pantry",
        "name": "Sheldon Heights CoC Food Pantry",
        "location_name": "Neighborhood Centroid",
        "address": "Roseland",
        "verification_status": "VERIFIED",
        "category": "Food Security"
      }
    },
    {
      "type": "Feature",
      "geometry": {
        "type": "Point",
        "coordinates": [
          -87.66369076618116,
          41.74999198261201
        ]
      },
      "properties": {
        "group_id": "st-sabina-church-food-pantry",
        "name": "St. Sabina Church Food Pantry",
        "location_name": "Neighborhood Centroid",
        "address": "Auburn Gresham",
        "verification_status": "VERIFIED",
        "category": "Food Security"
      }
    },
    {
      "type": "Feature",
      "geometry": {
        "type": "Point",
        "coordinates": [
          -87.6891634492119,
          42.04742547527359
        ]
      },
      "properties": {
        "group_id": "evanston-community-cares",
        "name": "Evanston Community Cares",
        "location_name": "Neighborhood Centroid",
        "address": "Evanston",
        "verification_status": "VERIFIED",
        "category": "Mutual Aid - General"
      }
    },
    {
      "type": "Feature",
      "geometry": {
        "type": "Point",
        "coordinates": [
          -87.68594947670941,
          42.04641067682105
        ]
      },
      "properties": {
        "group_id": "evanston-skokie-mutual-aid-network",
        "name": "Evanston/Skokie Mutual Aid Network",
        "location_name": "Neighborhood Centroid",
        "address": "Evanston",
        "verification_status": "VERIFIED",
        "category": "Mutual Aid - General"
      }
    },
    {
      "type": "Feature",
      "geometry": {
        "type": "Point",
        "coordinates": [
          -87.62381359857588,
          41.69065951605798
        ]
      },
      "properties": {
        "group_id": "greater-roseland-west-pullman-food-network",
        "name": "Greater Roseland West Pullman Food Network",
        "location_name": "Neighborhood Centroid",
        "address": "Roseland",
        "verification_status": "VERIFIED",
        "category": "Food Security"
      }
    },
    {
      "type": "Feature",
      "geometry": {
        "type": "Point",
        "coordinates": [
          -87.66468643854967,
          41.75034666689675
        ]
      },
      "properties": {
        "group_id": "target-area-development-corporation",
        "name": "Target Area Development Corporation",
        "location_name": "Neighborhood Centroid",
        "address": "Auburn Gresham",
        "verification_status": "VERIFIED",
        "category": "Food Security"
      }
    },
    {
      "type": "Feature",
      "geometry": {
        "type": "Point",
        "coordinates": [
          -87.66371560069592,
          41.75011718160487
        ]
      },
      "properties": {
        "group_id": "greater-auburn-gresham-development-corporation-gagdc",
        "name": "Greater Auburn Gresham Development Corporation (GAGDC)",
        "location_name": "Neighborhood Centroid",
        "address": "Auburn Gresham",
        "verification_status": "VERIFIED",
        "category": "Community Development"
      }
    },
    {
      "type": "Feature",
      "geometry": {
        "type": "Point",
        "coordinates": [
          -87.62051686598298,
          41.69473273419818
        ]
      },
      "properties": {
        "group_id": "youth-peace-center-of-roseland",
        "name": "Youth Peace Center of Roseland",
        "location_name": "Neighborhood Centroid",
        "address": "Roseland",
        "verification_status": "VERIFIED",
        "category": "Youth & Education"
      }
    },
    {
      "type": "Feature",
      "geometry": {
        "type": "Point",
        "coordinates": [
          -87.62401512683867,
          41.69058164154729
        ]
      },
      "properties": {
        "group_id": "peaceplayers-chicago",
        "name": "PeacePlayers Chicago",
        "location_name": "Neighborhood Centroid",
        "address": "Roseland",
        "verification_status": "VERIFIED",
        "category": "Youth & Education"
      }
    },
    {
      "type": "Feature",
      "geometry": {
        "type": "Point",
        "coordinates": [
          -87.59050794894237,
          41.776540838459674
        ]
      },
      "properties": {
        "group_id": "southside-nature-play",
        "name": "Southside Nature Play",
        "location_name": "Neighborhood Centroid",
        "address": "Woodlawn",
        "verification_status": "LIKELY_ACTIVE",
        "category": "Environmental & Green Space"
      }
    }
  ]
}